[
  {
    "name": "Praxis Bornemann / Mahlo",
    "city": "Dresden",
    "category": "dentist",
    "nameable": false,
    "entity_type": "person",
    "lat": 51.0880197,
    "lng": 13.729844,
    "url": "https://www.google.com/maps/search/?api=1&query=Praxis%20Bornemann%20%2F%20Mahlo%20Dresden"
  },
  {
    "name": "Zahndoktor Eismann",
    "city": "Dresden",
    "category": "dentist",
    "nameable": false,
    "entity_type": "person",
    "lat": 51.0506682,
    "lng": 13.7106253,
    "url": "https://www.google.com/maps/search/?api=1&query=Zahndoktor%20Eismann%20Dresden"
  },
  {
    "name": "Dipl. stom. M. Arnold",
    "city": "Dresden",
    "category": "dentist",
    "nameable": false,
    "entity_type": "person",
    "lat": 51.0613784,
    "lng": 13.7417884,
    "url": "https://www.google.com/maps/search/?api=1&query=Dipl.%20stom.%20M.%20Arnold%20Dresden"
  },
  {
    "name": "Zahnarzt Hanisch",
    "city": "Dresden",
    "category": "dentist",
    "nameable": false,
    "entity_type": "person",
    "lat": 51.0434034,
    "lng": 13.7951874,
    "url": "https://www.google.com/maps/search/?api=1&query=Zahnarzt%20Hanisch%20Dresden"
  },
  {
    "name": "Burghard Wollenhaupt",
    "city": "Dresden",
    "category": "dentist",
    "nameable": false,
    "entity_type": "person",
    "lat": 51.0351543,
    "lng": 13.8106752,
    "url": "https://www.google.com/maps/search/?api=1&query=Burghard%20Wollenhaupt%20Dresden"
  },
  {
    "name": "Torsten Mann",
    "city": "Dresden",
    "category": "dentist",
    "nameable": false,
    "entity_type": "person",
    "lat": 51.0576183,
    "lng": 13.771525,
    "url": "https://www.google.com/maps/search/?api=1&query=Torsten%20Mann%20Dresden"
  },
  {
    "name": "Karin Nowak und Dr. Lutz Haney",
    "city": "Dresden",
    "category": "dentist",
    "nameable": false,
    "entity_type": "person",
    "lat": 51.1097279,
    "lng": 13.7614165,
    "url": "https://www.google.com/maps/search/?api=1&query=Karin%20Nowak%20und%20Dr.%20Lutz%20Haney%20Dresden"
  },
  {
    "name": "Dr. Gäbler",
    "city": "Dresden",
    "category": "dentist",
    "nameable": false,
    "entity_type": "person",
    "lat": 51.1258795,
    "lng": 13.8395044,
    "url": "https://www.google.com/maps/search/?api=1&query=Dr.%20G%C3%A4bler%20Dresden"
  },
  {
    "name": "Dr. Folker Lode; Dr. Petra Lode",
    "city": "Dresden",
    "category": "dentist",
    "nameable": false,
    "entity_type": "person",
    "lat": 51.0474528,
    "lng": 13.7763646,
    "url": "https://www.google.com/maps/search/?api=1&query=Dr.%20Folker%20Lode%3B%20Dr.%20Petra%20Lode%20Dresden"
  },
  {
    "name": "Zahnarztpraxis Dr. Jonathan Tam",
    "city": "Dresden",
    "category": "dentist",
    "nameable": false,
    "entity_type": "person",
    "lat": 51.0501067,
    "lng": 13.7950466,
    "url": "https://www.google.com/maps/search/?api=1&query=Zahnarztpraxis%20Dr.%20Jonathan%20Tam%20Dresden"
  },
  {
    "name": "Seinab Marstani",
    "city": "Dresden",
    "category": "dentist",
    "nameable": false,
    "entity_type": "person",
    "lat": 51.0930895,
    "lng": 13.7208963,
    "url": "https://www.google.com/maps/search/?api=1&query=Seinab%20Marstani%20Dresden"
  },
  {
    "name": "Dr. G. Neefe",
    "city": "Dresden",
    "category": "dentist",
    "nameable": false,
    "entity_type": "person",
    "lat": 51.0309004,
    "lng": 13.8219232,
    "url": "https://www.google.com/maps/search/?api=1&query=Dr.%20G.%20Neefe%20Dresden"
  },
  {
    "name": "Ulrike Lenz",
    "city": "Dresden",
    "category": "dentist",
    "nameable": false,
    "entity_type": "person",
    "lat": 51.0308116,
    "lng": 13.8226956,
    "url": "https://www.google.com/maps/search/?api=1&query=Ulrike%20Lenz%20Dresden"
  },
  {
    "name": "Ralph Heinze",
    "city": "Dresden",
    "category": "dentist",
    "nameable": false,
    "entity_type": "person",
    "lat": 51.0372984,
    "lng": 13.7315216,
    "url": "https://www.google.com/maps/search/?api=1&query=Ralph%20Heinze%20Dresden"
  },
  {
    "name": "Karola Runge",
    "city": "Dresden",
    "category": "dentist",
    "nameable": false,
    "entity_type": "person",
    "lat": 51.0328543,
    "lng": 13.7107497,
    "url": "https://www.google.com/maps/search/?api=1&query=Karola%20Runge%20Dresden"
  },
  {
    "name": "Dr. Linda Franck & Kollegen",
    "city": "Dresden",
    "category": "dentist",
    "nameable": false,
    "entity_type": "person",
    "lat": 51.0375122,
    "lng": 13.8057373,
    "url": "https://www.google.com/maps/search/?api=1&query=Dr.%20Linda%20Franck%20%26%20Kollegen%20Dresden"
  },
  {
    "name": "Dr. Torsten Schräpler",
    "city": "Dresden",
    "category": "dentist",
    "nameable": false,
    "entity_type": "person",
    "lat": 51.0726547,
    "lng": 13.7430203,
    "url": "https://www.google.com/maps/search/?api=1&query=Dr.%20Torsten%20Schr%C3%A4pler%20Dresden"
  },
  {
    "name": "Dr. Zlatina Böswetter",
    "city": "Dresden",
    "category": "dentist",
    "nameable": false,
    "entity_type": "person",
    "lat": 51.0682337,
    "lng": 13.7473076,
    "url": "https://www.google.com/maps/search/?api=1&query=Dr.%20Zlatina%20B%C3%B6swetter%20Dresden"
  },
  {
    "name": "Zahnarztpraxis Benedix",
    "city": "Dresden",
    "category": "dentist",
    "nameable": false,
    "entity_type": "person",
    "lat": 51.0612064,
    "lng": 13.6794481,
    "url": "https://www.google.com/maps/search/?api=1&query=Zahnarztpraxis%20Benedix%20Dresden"
  },
  {
    "name": "Dr. med. Volker Beltz",
    "city": "Dresden",
    "category": "dentist",
    "nameable": false,
    "entity_type": "person",
    "lat": 51.0479038,
    "lng": 13.7391608,
    "url": "https://www.google.com/maps/search/?api=1&query=Dr.%20med.%20Volker%20Beltz%20Dresden"
  },
  {
    "name": "Zahnärzte an der Bürgerwiese",
    "city": "Dresden",
    "category": "dentist",
    "nameable": true,
    "entity_type": "business",
    "lat": 51.0439805,
    "lng": 13.7407803,
    "url": "https://www.google.com/maps/search/?api=1&query=Zahn%C3%A4rzte%20an%20der%20B%C3%BCrgerwiese%20Dresden"
  },
  {
    "name": "Markus Förster",
    "city": "Dresden",
    "category": "dentist",
    "nameable": false,
    "entity_type": "person",
    "lat": 51.0425892,
    "lng": 13.6811756,
    "url": "https://www.google.com/maps/search/?api=1&query=Markus%20F%C3%B6rster%20Dresden"
  },
  {
    "name": "Zahnarztpraxis Dresden-Gittersee",
    "city": "Dresden",
    "category": "dentist",
    "nameable": false,
    "entity_type": "person",
    "lat": 51.013329,
    "lng": 13.6934702,
    "url": "https://www.google.com/maps/search/?api=1&query=Zahnarztpraxis%20Dresden-Gittersee%20Dresden"
  },
  {
    "name": "Zahnarztpraxis Dr. med. dent. Uta Wolff",
    "city": "Dresden",
    "category": "dentist",
    "nameable": false,
    "entity_type": "person",
    "lat": 51.0324501,
    "lng": 13.7024658,
    "url": "https://www.google.com/maps/search/?api=1&query=Zahnarztpraxis%20Dr.%20med.%20dent.%20Uta%20Wolff%20Dresden"
  },
  {
    "name": "Ulrike Diezel",
    "city": "Dresden",
    "category": "dentist",
    "nameable": false,
    "entity_type": "person",
    "lat": 51.0825192,
    "lng": 13.7130373,
    "url": "https://www.google.com/maps/search/?api=1&query=Ulrike%20Diezel%20Dresden"
  },
  {
    "name": "Dr. Marina Augustin",
    "city": "Dresden",
    "category": "dentist",
    "nameable": false,
    "entity_type": "person",
    "lat": 51.024666,
    "lng": 13.7598656,
    "url": "https://www.google.com/maps/search/?api=1&query=Dr.%20Marina%20Augustin%20Dresden"
  },
  {
    "name": "Molinnus",
    "city": "Dresden",
    "category": "dentist",
    "nameable": true,
    "entity_type": "business",
    "lat": 51.0316266,
    "lng": 13.8214881,
    "url": "https://www.google.com/maps/search/?api=1&query=Molinnus%20Dresden"
  },
  {
    "name": "Dr. Sebastian Golbs",
    "city": "Dresden",
    "category": "dentist",
    "nameable": false,
    "entity_type": "person",
    "lat": 51.0460561,
    "lng": 13.8089274,
    "url": "https://www.google.com/maps/search/?api=1&query=Dr.%20Sebastian%20Golbs%20Dresden"
  },
  {
    "name": "Zahnarztpraxis Birgit Pohl",
    "city": "Dresden",
    "category": "dentist",
    "nameable": false,
    "entity_type": "person",
    "lat": 51.036094,
    "lng": 13.7869905,
    "url": "https://www.google.com/maps/search/?api=1&query=Zahnarztpraxis%20Birgit%20Pohl%20Dresden"
  },
  {
    "name": "Dr. Freymann",
    "city": "Dresden",
    "category": "dentist",
    "nameable": false,
    "entity_type": "person",
    "lat": 51.027178,
    "lng": 13.835663,
    "url": "https://www.google.com/maps/search/?api=1&query=Dr.%20Freymann%20Dresden"
  },
  {
    "name": "Dipl.-Stom. Birgit Hoffmann",
    "city": "Dresden",
    "category": "dentist",
    "nameable": false,
    "entity_type": "person",
    "lat": 51.024254,
    "lng": 13.759988,
    "url": "https://www.google.com/maps/search/?api=1&query=Dipl.-Stom.%20Birgit%20Hoffmann%20Dresden"
  },
  {
    "name": "Klein Zahnärzte, Dr. med. dent. Yvonne Klein",
    "city": "Dresden",
    "category": "dentist",
    "nameable": false,
    "entity_type": "person",
    "lat": 51.024259,
    "lng": 13.7615936,
    "url": "https://www.google.com/maps/search/?api=1&query=Klein%20Zahn%C3%A4rzte%2C%20Dr.%20med.%20dent.%20Yvonne%20Klein%20Dresden"
  },
  {
    "name": "Zahnärzte Mann",
    "city": "Dresden",
    "category": "dentist",
    "nameable": false,
    "entity_type": "person",
    "lat": 51.0280567,
    "lng": 13.7585063,
    "url": "https://www.google.com/maps/search/?api=1&query=Zahn%C3%A4rzte%20Mann%20Dresden"
  },
  {
    "name": "Zahnzentrum AllDent",
    "city": "Dresden",
    "category": "dentist",
    "nameable": true,
    "entity_type": "business",
    "lat": 51.048695,
    "lng": 13.7373294,
    "url": "https://www.google.com/maps/search/?api=1&query=Zahnzentrum%20AllDent%20Dresden"
  },
  {
    "name": "Dr. med. Ulrike Leuschner",
    "city": "Dresden",
    "category": "dentist",
    "nameable": false,
    "entity_type": "person",
    "lat": 51.1184939,
    "lng": 13.7605881,
    "url": "https://www.google.com/maps/search/?api=1&query=Dr.%20med.%20Ulrike%20Leuschner%20Dresden"
  },
  {
    "name": "Zahnärztin Gabriele Landrock",
    "city": "Dresden",
    "category": "dentist",
    "nameable": false,
    "entity_type": "person",
    "lat": 51.0151017,
    "lng": 13.78738,
    "url": "https://www.google.com/maps/search/?api=1&query=Zahn%C3%A4rztin%20Gabriele%20Landrock%20Dresden"
  },
  {
    "name": "Otmar Tauchert",
    "city": "Dresden",
    "category": "dentist",
    "nameable": false,
    "entity_type": "person",
    "lat": 51.0182241,
    "lng": 13.6953754,
    "url": "https://www.google.com/maps/search/?api=1&query=Otmar%20Tauchert%20Dresden"
  },
  {
    "name": "Praxisgemeinschaft Dr. Schneider & Lang",
    "city": "Dresden",
    "category": "dentist",
    "nameable": false,
    "entity_type": "person",
    "lat": 51.0376573,
    "lng": 13.6993058,
    "url": "https://www.google.com/maps/search/?api=1&query=Praxisgemeinschaft%20Dr.%20Schneider%20%26%20Lang%20Dresden"
  },
  {
    "name": "ZAHNÄRZTE Plischka MVZ GmbH",
    "city": "Dresden",
    "category": "dentist",
    "nameable": true,
    "entity_type": "legal",
    "lat": 51.0926299,
    "lng": 13.7210258,
    "url": "https://www.google.com/maps/search/?api=1&query=ZAHN%C3%84RZTE%20Plischka%20MVZ%20GmbH%20Dresden"
  },
  {
    "name": "Zahnarztpraxis Brötzmann",
    "city": "Dresden",
    "category": "dentist",
    "nameable": false,
    "entity_type": "person",
    "lat": 51.0395104,
    "lng": 13.8061809,
    "url": "https://www.google.com/maps/search/?api=1&query=Zahnarztpraxis%20Br%C3%B6tzmann%20Dresden"
  },
  {
    "name": "Zahnärztin Petra Radach",
    "city": "Dresden",
    "category": "dentist",
    "nameable": false,
    "entity_type": "person",
    "lat": 51.0151337,
    "lng": 13.7873465,
    "url": "https://www.google.com/maps/search/?api=1&query=Zahn%C3%A4rztin%20Petra%20Radach%20Dresden"
  },
  {
    "name": "Elke Schütze, Hagen Schönlebe",
    "city": "Dresden",
    "category": "dentist",
    "nameable": false,
    "entity_type": "person",
    "lat": 51.0435277,
    "lng": 13.6943589,
    "url": "https://www.google.com/maps/search/?api=1&query=Elke%20Sch%C3%BCtze%2C%20Hagen%20Sch%C3%B6nlebe%20Dresden"
  },
  {
    "name": "Doreen Kempe",
    "city": "Dresden",
    "category": "dentist",
    "nameable": false,
    "entity_type": "person",
    "lat": 51.0364378,
    "lng": 13.7023215,
    "url": "https://www.google.com/maps/search/?api=1&query=Doreen%20Kempe%20Dresden"
  },
  {
    "name": "zahntastisch",
    "city": "Dresden",
    "category": "dentist",
    "nameable": true,
    "entity_type": "business",
    "lat": 51.0272617,
    "lng": 13.7496879,
    "url": "https://www.google.com/maps/search/?api=1&query=zahntastisch%20Dresden"
  },
  {
    "name": "Tom Siepker",
    "city": "Dresden",
    "category": "dentist",
    "nameable": false,
    "entity_type": "person",
    "lat": 51.1253134,
    "lng": 13.8401444,
    "url": "https://www.google.com/maps/search/?api=1&query=Tom%20Siepker%20Dresden"
  },
  {
    "name": "Kieferorthopädie Dr. Beltz",
    "city": "Dresden",
    "category": "dentist",
    "nameable": false,
    "entity_type": "person",
    "lat": 51.0630301,
    "lng": 13.7448631,
    "url": "https://www.google.com/maps/search/?api=1&query=Kieferorthop%C3%A4die%20Dr.%20Beltz%20Dresden"
  },
  {
    "name": "Zahnarztpraxis Andreas und Christian Semmler",
    "city": "Dresden",
    "category": "dentist",
    "nameable": false,
    "entity_type": "person",
    "lat": 51.0519653,
    "lng": 13.7930316,
    "url": "https://www.google.com/maps/search/?api=1&query=Zahnarztpraxis%20Andreas%20und%20Christian%20Semmler%20Dresden"
  },
  {
    "name": "Zahnarztpraxis David Klinger",
    "city": "Dresden",
    "category": "dentist",
    "nameable": false,
    "entity_type": "person",
    "lat": 51.0708919,
    "lng": 13.7505802,
    "url": "https://www.google.com/maps/search/?api=1&query=Zahnarztpraxis%20David%20Klinger%20Dresden"
  },
  {
    "name": "Dipl. Stom. Sylvia Bauer",
    "city": "Dresden",
    "category": "dentist",
    "nameable": false,
    "entity_type": "person",
    "lat": 51.0663584,
    "lng": 13.7545145,
    "url": "https://www.google.com/maps/search/?api=1&query=Dipl.%20Stom.%20Sylvia%20Bauer%20Dresden"
  },
  {
    "name": "Frank Cendelin",
    "city": "Dresden",
    "category": "dentist",
    "nameable": false,
    "entity_type": "person",
    "lat": 51.0607807,
    "lng": 13.7531394,
    "url": "https://www.google.com/maps/search/?api=1&query=Frank%20Cendelin%20Dresden"
  },
  {
    "name": "Praxisgemeinschaft Inka Reuter und Annegret Wache",
    "city": "Dresden",
    "category": "dentist",
    "nameable": false,
    "entity_type": "person",
    "lat": 51.0695985,
    "lng": 13.7558455,
    "url": "https://www.google.com/maps/search/?api=1&query=Praxisgemeinschaft%20Inka%20Reuter%20und%20Annegret%20Wache%20Dresden"
  },
  {
    "name": "Zahnarztpraxis Uwe Nünchert",
    "city": "Dresden",
    "category": "dentist",
    "nameable": false,
    "entity_type": "person",
    "lat": 51.0436687,
    "lng": 13.6789231,
    "url": "https://www.google.com/maps/search/?api=1&query=Zahnarztpraxis%20Uwe%20N%C3%BCnchert%20Dresden"
  },
  {
    "name": "ZMK",
    "city": "Dresden",
    "category": "dentist",
    "nameable": true,
    "entity_type": "business",
    "lat": 51.0186673,
    "lng": 13.76693,
    "url": "https://www.google.com/maps/search/?api=1&query=ZMK%20Dresden"
  },
  {
    "name": "Zahnarztpraxis Katharina Stieber",
    "city": "Dresden",
    "category": "dentist",
    "nameable": false,
    "entity_type": "person",
    "lat": 51.0172779,
    "lng": 13.769306,
    "url": "https://www.google.com/maps/search/?api=1&query=Zahnarztpraxis%20Katharina%20Stieber%20Dresden"
  },
  {
    "name": "Dr. med. Röder, Annette",
    "city": "Dresden",
    "category": "dentist",
    "nameable": false,
    "entity_type": "person",
    "lat": 51.1321085,
    "lng": 13.7908669,
    "url": "https://www.google.com/maps/search/?api=1&query=Dr.%20med.%20R%C3%B6der%2C%20Annette%20Dresden"
  },
  {
    "name": "Dr. med. dent. Henner Gmyrek",
    "city": "Dresden",
    "category": "dentist",
    "nameable": false,
    "entity_type": "person",
    "lat": 51.0838567,
    "lng": 13.7284209,
    "url": "https://www.google.com/maps/search/?api=1&query=Dr.%20med.%20dent.%20Henner%20Gmyrek%20Dresden"
  },
  {
    "name": "Dr. Elke Freitag",
    "city": "Dresden",
    "category": "dentist",
    "nameable": false,
    "entity_type": "person",
    "lat": 51.0480803,
    "lng": 13.7697126,
    "url": "https://www.google.com/maps/search/?api=1&query=Dr.%20Elke%20Freitag%20Dresden"
  },
  {
    "name": "Zahnarztpraxis Alhadad",
    "city": "Dresden",
    "category": "dentist",
    "nameable": false,
    "entity_type": "person",
    "lat": 51.0556504,
    "lng": 13.7272596,
    "url": "https://www.google.com/maps/search/?api=1&query=Zahnarztpraxis%20Alhadad%20Dresden"
  },
  {
    "name": "Zahnarztpraxis René Reichelt",
    "city": "Dresden",
    "category": "dentist",
    "nameable": true,
    "entity_type": "business",
    "lat": 51.0100377,
    "lng": 13.8151681,
    "url": "https://www.google.com/maps/search/?api=1&query=Zahnarztpraxis%20Ren%C3%A9%20Reichelt%20Dresden"
  },
  {
    "name": "Dr. Z Zahnmed. Zentrum",
    "city": "Dresden",
    "category": "dentist",
    "nameable": false,
    "entity_type": "person",
    "lat": 51.0449207,
    "lng": 13.7363584,
    "url": "https://www.google.com/maps/search/?api=1&query=Dr.%20Z%20Zahnmed.%20Zentrum%20Dresden"
  },
  {
    "name": "Zahnarzt Tobias Kulpe",
    "city": "Dresden",
    "category": "dentist",
    "nameable": false,
    "entity_type": "person",
    "lat": 51.0236566,
    "lng": 13.7427363,
    "url": "https://www.google.com/maps/search/?api=1&query=Zahnarzt%20Tobias%20Kulpe%20Dresden"
  },
  {
    "name": "Gemeinschaftspraxis Ines Stier / Silvia Metzler",
    "city": "Dresden",
    "category": "dentist",
    "nameable": false,
    "entity_type": "person",
    "lat": 51.0668451,
    "lng": 13.7704729,
    "url": "https://www.google.com/maps/search/?api=1&query=Gemeinschaftspraxis%20Ines%20Stier%20%2F%20Silvia%20Metzler%20Dresden"
  },
  {
    "name": "Gemeinschaftspraxis für Zahnheilkunde",
    "city": "Dresden",
    "category": "dentist",
    "nameable": true,
    "entity_type": "business",
    "lat": 51.0279566,
    "lng": 13.7216549,
    "url": "https://www.google.com/maps/search/?api=1&query=Gemeinschaftspraxis%20f%C3%BCr%20Zahnheilkunde%20Dresden"
  },
  {
    "name": "Jörg Kube",
    "city": "Dresden",
    "category": "dentist",
    "nameable": false,
    "entity_type": "person",
    "lat": 51.0509996,
    "lng": 13.7741684,
    "url": "https://www.google.com/maps/search/?api=1&query=J%C3%B6rg%20Kube%20Dresden"
  },
  {
    "name": "Richard Vetters",
    "city": "Dresden",
    "category": "dentist",
    "nameable": false,
    "entity_type": "person",
    "lat": 51.0434707,
    "lng": 13.6996299,
    "url": "https://www.google.com/maps/search/?api=1&query=Richard%20Vetters%20Dresden"
  },
  {
    "name": "Anders",
    "city": "Dresden",
    "category": "dentist",
    "nameable": true,
    "entity_type": "business",
    "lat": 51.0512588,
    "lng": 13.6912779,
    "url": "https://www.google.com/maps/search/?api=1&query=Anders%20Dresden"
  },
  {
    "name": "Zahnarztpraxis Lars Kunath Christian Pätz",
    "city": "Dresden",
    "category": "dentist",
    "nameable": false,
    "entity_type": "person",
    "lat": 51.046503,
    "lng": 13.77339,
    "url": "https://www.google.com/maps/search/?api=1&query=Zahnarztpraxis%20Lars%20Kunath%20Christian%20P%C3%A4tz%20Dresden"
  },
  {
    "name": "Kieferorthopädische Praxis Dr. Müller",
    "city": "Dresden",
    "category": "dentist",
    "nameable": false,
    "entity_type": "person",
    "lat": 51.0536392,
    "lng": 13.7645396,
    "url": "https://www.google.com/maps/search/?api=1&query=Kieferorthop%C3%A4dische%20Praxis%20Dr.%20M%C3%BCller%20Dresden"
  },
  {
    "name": "Zahnarztpraxis Dr. med. dent. Grischa Brauckhoff",
    "city": "Dresden",
    "category": "dentist",
    "nameable": false,
    "entity_type": "person",
    "lat": 51.092789,
    "lng": 13.701018,
    "url": "https://www.google.com/maps/search/?api=1&query=Zahnarztpraxis%20Dr.%20med.%20dent.%20Grischa%20Brauckhoff%20Dresden"
  },
  {
    "name": "Zahnarzt Dr. med. dent. Conrad Kühnöl",
    "city": "Dresden",
    "category": "dentist",
    "nameable": false,
    "entity_type": "person",
    "lat": 51.0322598,
    "lng": 13.7208178,
    "url": "https://www.google.com/maps/search/?api=1&query=Zahnarzt%20Dr.%20med.%20dent.%20Conrad%20K%C3%BChn%C3%B6l%20Dresden"
  },
  {
    "name": "Dr. med. dent. Kristina Hänsel",
    "city": "Dresden",
    "category": "dentist",
    "nameable": false,
    "entity_type": "person",
    "lat": 51.032342,
    "lng": 13.721844,
    "url": "https://www.google.com/maps/search/?api=1&query=Dr.%20med.%20dent.%20Kristina%20H%C3%A4nsel%20Dresden"
  },
  {
    "name": "Canaletto ZMVZ",
    "city": "Dresden",
    "category": "dentist",
    "nameable": false,
    "entity_type": "person",
    "lat": 51.0581574,
    "lng": 13.8866768,
    "url": "https://www.google.com/maps/search/?api=1&query=Canaletto%20ZMVZ%20Dresden"
  },
  {
    "name": "M. Chojnacka-Pyzara",
    "city": "Dresden",
    "category": "dentist",
    "nameable": false,
    "entity_type": "person",
    "lat": 51.0339248,
    "lng": 13.7235322,
    "url": "https://www.google.com/maps/search/?api=1&query=M.%20Chojnacka-Pyzara%20Dresden"
  },
  {
    "name": "Zahnarztpraxis Martina und Gerald Heinz",
    "city": "Dresden",
    "category": "dentist",
    "nameable": false,
    "entity_type": "person",
    "lat": 51.0833017,
    "lng": 13.7305633,
    "url": "https://www.google.com/maps/search/?api=1&query=Zahnarztpraxis%20Martina%20und%20Gerald%20Heinz%20Dresden"
  },
  {
    "name": "Natascha Güldner",
    "city": "Dresden",
    "category": "dentist",
    "nameable": false,
    "entity_type": "person",
    "lat": 51.0469022,
    "lng": 13.6972627,
    "url": "https://www.google.com/maps/search/?api=1&query=Natascha%20G%C3%BCldner%20Dresden"
  },
  {
    "name": "Dr. Beatrix Karwath",
    "city": "Dresden",
    "category": "dentist",
    "nameable": false,
    "entity_type": "person",
    "lat": 51.0396309,
    "lng": 13.6808239,
    "url": "https://www.google.com/maps/search/?api=1&query=Dr.%20Beatrix%20Karwath%20Dresden"
  },
  {
    "name": "Tino Helm",
    "city": "Dresden",
    "category": "dentist",
    "nameable": false,
    "entity_type": "person",
    "lat": 51.0473152,
    "lng": 13.6919183,
    "url": "https://www.google.com/maps/search/?api=1&query=Tino%20Helm%20Dresden"
  },
  {
    "name": "Gabriela Gossel",
    "city": "Dresden",
    "category": "dentist",
    "nameable": false,
    "entity_type": "person",
    "lat": 51.0409377,
    "lng": 13.6922516,
    "url": "https://www.google.com/maps/search/?api=1&query=Gabriela%20Gossel%20Dresden"
  },
  {
    "name": "Zahnarztpraxis Dirk Pirschel",
    "city": "Dresden",
    "category": "dentist",
    "nameable": false,
    "entity_type": "person",
    "lat": 51.0946044,
    "lng": 13.7276874,
    "url": "https://www.google.com/maps/search/?api=1&query=Zahnarztpraxis%20Dirk%20Pirschel%20Dresden"
  },
  {
    "name": "Dr. Martina Rädel",
    "city": "Dresden",
    "category": "dentist",
    "nameable": false,
    "entity_type": "person",
    "lat": 51.033731,
    "lng": 13.7379695,
    "url": "https://www.google.com/maps/search/?api=1&query=Dr.%20Martina%20R%C3%A4del%20Dresden"
  },
  {
    "name": "Zahnarztpraxis Dr. med. Sylvia Peikert",
    "city": "Dresden",
    "category": "dentist",
    "nameable": false,
    "entity_type": "person",
    "lat": 51.0642096,
    "lng": 13.7395163,
    "url": "https://www.google.com/maps/search/?api=1&query=Zahnarztpraxis%20Dr.%20med.%20Sylvia%20Peikert%20Dresden"
  },
  {
    "name": "Kathrin Geffers",
    "city": "Dresden",
    "category": "dentist",
    "nameable": false,
    "entity_type": "person",
    "lat": 51.0687571,
    "lng": 13.7494835,
    "url": "https://www.google.com/maps/search/?api=1&query=Kathrin%20Geffers%20Dresden"
  },
  {
    "name": "Zahn & Art",
    "city": "Dresden",
    "category": "dentist",
    "nameable": false,
    "entity_type": "person",
    "lat": 51.0389768,
    "lng": 13.7242419,
    "url": "https://www.google.com/maps/search/?api=1&query=Zahn%20%26%20Art%20Dresden"
  },
  {
    "name": "Zahnwerk Engelmann",
    "city": "Dresden",
    "category": "dentist",
    "nameable": false,
    "entity_type": "person",
    "lat": 51.0291078,
    "lng": 13.705973,
    "url": "https://www.google.com/maps/search/?api=1&query=Zahnwerk%20Engelmann%20Dresden"
  },
  {
    "name": "André Hellberg",
    "city": "Dresden",
    "category": "dentist",
    "nameable": true,
    "entity_type": "business",
    "lat": 51.0791478,
    "lng": 13.7121259,
    "url": "https://www.google.com/maps/search/?api=1&query=Andr%C3%A9%20Hellberg%20Dresden"
  },
  {
    "name": "Dipl.-Stom. Eva Hörnig",
    "city": "Dresden",
    "category": "dentist",
    "nameable": false,
    "entity_type": "person",
    "lat": 51.0831291,
    "lng": 13.6850782,
    "url": "https://www.google.com/maps/search/?api=1&query=Dipl.-Stom.%20Eva%20H%C3%B6rnig%20Dresden"
  },
  {
    "name": "Ralph Teichert & Madlen Kübeck",
    "city": "Dresden",
    "category": "dentist",
    "nameable": false,
    "entity_type": "person",
    "lat": 51.0630481,
    "lng": 13.7437455,
    "url": "https://www.google.com/maps/search/?api=1&query=Ralph%20Teichert%20%26%20Madlen%20K%C3%BCbeck%20Dresden"
  },
  {
    "name": "Tom Friedrichs Zahnarzt",
    "city": "Dresden",
    "category": "dentist",
    "nameable": false,
    "entity_type": "person",
    "lat": 51.1195027,
    "lng": 13.7378263,
    "url": "https://www.google.com/maps/search/?api=1&query=Tom%20Friedrichs%20Zahnarzt%20Dresden"
  },
  {
    "name": "Zahnarztpraxis Dr. Voigt",
    "city": "Dresden",
    "category": "dentist",
    "nameable": false,
    "entity_type": "person",
    "lat": 51.0256168,
    "lng": 13.7099603,
    "url": "https://www.google.com/maps/search/?api=1&query=Zahnarztpraxis%20Dr.%20Voigt%20Dresden"
  },
  {
    "name": "Dr. Sorge",
    "city": "Dresden",
    "category": "dentist",
    "nameable": false,
    "entity_type": "person",
    "lat": 51.0570907,
    "lng": 13.7690894,
    "url": "https://www.google.com/maps/search/?api=1&query=Dr.%20Sorge%20Dresden"
  },
  {
    "name": "Zahnarztpraxis Anett Schiemenz",
    "city": "Dresden",
    "category": "dentist",
    "nameable": false,
    "entity_type": "person",
    "lat": 51.0877104,
    "lng": 13.7279803,
    "url": "https://www.google.com/maps/search/?api=1&query=Zahnarztpraxis%20Anett%20Schiemenz%20Dresden"
  },
  {
    "name": "Dr. med. Bottesi /Schneider",
    "city": "Dresden",
    "category": "dentist",
    "nameable": false,
    "entity_type": "person",
    "lat": 51.0095746,
    "lng": 13.8272998,
    "url": "https://www.google.com/maps/search/?api=1&query=Dr.%20med.%20Bottesi%20%2FSchneider%20Dresden"
  },
  {
    "name": "Carina Weigmann",
    "city": "Dresden",
    "category": "dentist",
    "nameable": false,
    "entity_type": "person",
    "lat": 51.0511436,
    "lng": 13.6829644,
    "url": "https://www.google.com/maps/search/?api=1&query=Carina%20Weigmann%20Dresden"
  },
  {
    "name": "Zahnarztpraxis Pfaff",
    "city": "Dresden",
    "category": "dentist",
    "nameable": false,
    "entity_type": "person",
    "lat": 51.0616605,
    "lng": 13.8852278,
    "url": "https://www.google.com/maps/search/?api=1&query=Zahnarztpraxis%20Pfaff%20Dresden"
  },
  {
    "name": "Zahnärztin Anke Berger",
    "city": "Dresden",
    "category": "dentist",
    "nameable": false,
    "entity_type": "person",
    "lat": 51.009999,
    "lng": 13.8152353,
    "url": "https://www.google.com/maps/search/?api=1&query=Zahn%C3%A4rztin%20Anke%20Berger%20Dresden"
  },
  {
    "name": "Zahnarztpraxis Denise Henke",
    "city": "Dresden",
    "category": "dentist",
    "nameable": false,
    "entity_type": "person",
    "lat": 51.0111839,
    "lng": 13.8284634,
    "url": "https://www.google.com/maps/search/?api=1&query=Zahnarztpraxis%20Denise%20Henke%20Dresden"
  },
  {
    "name": "Zahnarztpraxis am Königshof",
    "city": "Dresden",
    "category": "dentist",
    "nameable": true,
    "entity_type": "business",
    "lat": 51.0273964,
    "lng": 13.7602145,
    "url": "https://www.google.com/maps/search/?api=1&query=Zahnarztpraxis%20am%20K%C3%B6nigshof%20Dresden"
  },
  {
    "name": "Zahnarztpraxis Susanne Pauline Begoff",
    "city": "Dresden",
    "category": "dentist",
    "nameable": false,
    "entity_type": "person",
    "lat": 51.0262858,
    "lng": 13.7588109,
    "url": "https://www.google.com/maps/search/?api=1&query=Zahnarztpraxis%20Susanne%20Pauline%20Begoff%20Dresden"
  },
  {
    "name": "Zahnärztliche Gemeinschaftspraxis E. & A. Ihle",
    "city": "Dresden",
    "category": "dentist",
    "nameable": true,
    "entity_type": "business",
    "lat": 51.042208,
    "lng": 13.7997249,
    "url": "https://www.google.com/maps/search/?api=1&query=Zahn%C3%A4rztliche%20Gemeinschaftspraxis%20E.%20%26%20A.%20Ihle%20Dresden"
  },
  {
    "name": "Kieferorthopädie Gänßler",
    "city": "Dresden",
    "category": "dentist",
    "nameable": false,
    "entity_type": "person",
    "lat": 51.0434801,
    "lng": 13.7820146,
    "url": "https://www.google.com/maps/search/?api=1&query=Kieferorthop%C3%A4die%20G%C3%A4n%C3%9Fler%20Dresden"
  },
  {
    "name": "Löschner",
    "city": "Dresden",
    "category": "dentist",
    "nameable": true,
    "entity_type": "business",
    "lat": 51.0514579,
    "lng": 13.807252,
    "url": "https://www.google.com/maps/search/?api=1&query=L%C3%B6schner%20Dresden"
  },
  {
    "name": "René Somburg",
    "city": "Dresden",
    "category": "dentist",
    "nameable": true,
    "entity_type": "business",
    "lat": 51.0922752,
    "lng": 13.7154129,
    "url": "https://www.google.com/maps/search/?api=1&query=Ren%C3%A9%20Somburg%20Dresden"
  },
  {
    "name": "Dr. Zanger",
    "city": "Dresden",
    "category": "dentist",
    "nameable": false,
    "entity_type": "person",
    "lat": 51.0460559,
    "lng": 13.8012321,
    "url": "https://www.google.com/maps/search/?api=1&query=Dr.%20Zanger%20Dresden"
  },
  {
    "name": "Anke Merten",
    "city": "Dresden",
    "category": "dentist",
    "nameable": false,
    "entity_type": "person",
    "lat": 51.0565368,
    "lng": 13.7637041,
    "url": "https://www.google.com/maps/search/?api=1&query=Anke%20Merten%20Dresden"
  },
  {
    "name": "Dr. med. dent. Sandra Deckert",
    "city": "Dresden",
    "category": "dentist",
    "nameable": false,
    "entity_type": "person",
    "lat": 51.0567878,
    "lng": 13.7633593,
    "url": "https://www.google.com/maps/search/?api=1&query=Dr.%20med.%20dent.%20Sandra%20Deckert%20Dresden"
  },
  {
    "name": "Tino Tasler",
    "city": "Dresden",
    "category": "dentist",
    "nameable": false,
    "entity_type": "person",
    "lat": 51.0484826,
    "lng": 13.7689042,
    "url": "https://www.google.com/maps/search/?api=1&query=Tino%20Tasler%20Dresden"
  },
  {
    "name": "Sigrid Elfeld & Anke Hahn",
    "city": "Dresden",
    "category": "dentist",
    "nameable": false,
    "entity_type": "person",
    "lat": 51.0485769,
    "lng": 13.7689427,
    "url": "https://www.google.com/maps/search/?api=1&query=Sigrid%20Elfeld%20%26%20Anke%20Hahn%20Dresden"
  },
  {
    "name": "Schwarzbach",
    "city": "Dresden",
    "category": "dentist",
    "nameable": true,
    "entity_type": "business",
    "lat": 51.045879,
    "lng": 13.7898709,
    "url": "https://www.google.com/maps/search/?api=1&query=Schwarzbach%20Dresden"
  },
  {
    "name": "Dr. med J. Hölzer",
    "city": "Dresden",
    "category": "dentist",
    "nameable": false,
    "entity_type": "person",
    "lat": 51.0037963,
    "lng": 13.7927394,
    "url": "https://www.google.com/maps/search/?api=1&query=Dr.%20med%20J.%20H%C3%B6lzer%20Dresden"
  },
  {
    "name": "Zahnarztpraxis Nahrath & Fechert",
    "city": "Dresden",
    "category": "dentist",
    "nameable": false,
    "entity_type": "person",
    "lat": 51.0432321,
    "lng": 13.8039176,
    "url": "https://www.google.com/maps/search/?api=1&query=Zahnarztpraxis%20Nahrath%20%26%20Fechert%20Dresden"
  },
  {
    "name": "Georgia Hübler",
    "city": "Dresden",
    "category": "dentist",
    "nameable": false,
    "entity_type": "person",
    "lat": 51.0037313,
    "lng": 13.79275,
    "url": "https://www.google.com/maps/search/?api=1&query=Georgia%20H%C3%BCbler%20Dresden"
  },
  {
    "name": "Dr. Martin Bartsch",
    "city": "Dresden",
    "category": "dentist",
    "nameable": false,
    "entity_type": "person",
    "lat": 51.0477413,
    "lng": 13.7566638,
    "url": "https://www.google.com/maps/search/?api=1&query=Dr.%20Martin%20Bartsch%20Dresden"
  },
  {
    "name": "Dr. Christine Lonnstrom",
    "city": "Dresden",
    "category": "dentist",
    "nameable": false,
    "entity_type": "person",
    "lat": 51.049594,
    "lng": 13.7403183,
    "url": "https://www.google.com/maps/search/?api=1&query=Dr.%20Christine%20Lonnstrom%20Dresden"
  },
  {
    "name": "Dr. Maja Anton",
    "city": "Dresden",
    "category": "dentist",
    "nameable": false,
    "entity_type": "person",
    "lat": 50.9898376,
    "lng": 13.7953659,
    "url": "https://www.google.com/maps/search/?api=1&query=Dr.%20Maja%20Anton%20Dresden"
  },
  {
    "name": "Thomas Härtel",
    "city": "Dresden",
    "category": "dentist",
    "nameable": false,
    "entity_type": "person",
    "lat": 51.060011,
    "lng": 13.6772049,
    "url": "https://www.google.com/maps/search/?api=1&query=Thomas%20H%C3%A4rtel%20Dresden"
  },
  {
    "name": "Zahnarzt Hoch",
    "city": "Dresden",
    "category": "dentist",
    "nameable": false,
    "entity_type": "person",
    "lat": 51.0273131,
    "lng": 13.7094988,
    "url": "https://www.google.com/maps/search/?api=1&query=Zahnarzt%20Hoch%20Dresden"
  },
  {
    "name": "Zahnarzt Dr. Markus Hartmann und David Klinger",
    "city": "Dresden",
    "category": "dentist",
    "nameable": false,
    "entity_type": "person",
    "lat": 51.1122532,
    "lng": 13.7801354,
    "url": "https://www.google.com/maps/search/?api=1&query=Zahnarzt%20Dr.%20Markus%20Hartmann%20und%20David%20Klinger%20Dresden"
  },
  {
    "name": "Zahnarztpraxis Grimm",
    "city": "Dresden",
    "category": "dentist",
    "nameable": false,
    "entity_type": "person",
    "lat": 51.0488523,
    "lng": 13.7894336,
    "url": "https://www.google.com/maps/search/?api=1&query=Zahnarztpraxis%20Grimm%20Dresden"
  },
  {
    "name": "Dr. med. Wolfram Kliemank",
    "city": "Dresden",
    "category": "dentist",
    "nameable": false,
    "entity_type": "person",
    "lat": 51.0634568,
    "lng": 13.8218327,
    "url": "https://www.google.com/maps/search/?api=1&query=Dr.%20med.%20Wolfram%20Kliemank%20Dresden"
  },
  {
    "name": "Dr. med Falk Wodraschka",
    "city": "Dresden",
    "category": "dentist",
    "nameable": false,
    "entity_type": "person",
    "lat": 51.0248211,
    "lng": 13.837678,
    "url": "https://www.google.com/maps/search/?api=1&query=Dr.%20med%20Falk%20Wodraschka%20Dresden"
  },
  {
    "name": "Zahnarztpraxis Reuter",
    "city": "Dresden",
    "category": "dentist",
    "nameable": false,
    "entity_type": "person",
    "lat": 51.0643348,
    "lng": 13.7609862,
    "url": "https://www.google.com/maps/search/?api=1&query=Zahnarztpraxis%20Reuter%20Dresden"
  },
  {
    "name": "Prosper Hantschel",
    "city": "Dresden",
    "category": "dentist",
    "nameable": false,
    "entity_type": "person",
    "lat": 51.0722094,
    "lng": 13.7510003,
    "url": "https://www.google.com/maps/search/?api=1&query=Prosper%20Hantschel%20Dresden"
  },
  {
    "name": "Zahnarztpraxis Dipl.-Stom. Anke Viebig",
    "city": "Dresden",
    "category": "dentist",
    "nameable": false,
    "entity_type": "person",
    "lat": 51.0155588,
    "lng": 13.767989,
    "url": "https://www.google.com/maps/search/?api=1&query=Zahnarztpraxis%20Dipl.-Stom.%20Anke%20Viebig%20Dresden"
  },
  {
    "name": "Dr. Jürgen Prochnow",
    "city": "Dresden",
    "category": "dentist",
    "nameable": false,
    "entity_type": "person",
    "lat": 51.0638893,
    "lng": 13.7521163,
    "url": "https://www.google.com/maps/search/?api=1&query=Dr.%20J%C3%BCrgen%20Prochnow%20Dresden"
  },
  {
    "name": "Jan Helm",
    "city": "Dresden",
    "category": "dentist",
    "nameable": false,
    "entity_type": "person",
    "lat": 51.0476791,
    "lng": 13.6922166,
    "url": "https://www.google.com/maps/search/?api=1&query=Jan%20Helm%20Dresden"
  },
  {
    "name": "Zahnarztpraxis Katharina Reich",
    "city": "Dresden",
    "category": "dentist",
    "nameable": false,
    "entity_type": "person",
    "lat": 51.019598,
    "lng": 13.7052973,
    "url": "https://www.google.com/maps/search/?api=1&query=Zahnarztpraxis%20Katharina%20Reich%20Dresden"
  },
  {
    "name": "Dr. Antje Mayer, Uta Schreger",
    "city": "Dresden",
    "category": "dentist",
    "nameable": false,
    "entity_type": "person",
    "lat": 51.0086144,
    "lng": 13.8544694,
    "url": "https://www.google.com/maps/search/?api=1&query=Dr.%20Antje%20Mayer%2C%20Uta%20Schreger%20Dresden"
  },
  {
    "name": "Kieferorthopädische Praxis Dr. Heike Ridder",
    "city": "Dresden",
    "category": "dentist",
    "nameable": false,
    "entity_type": "person",
    "lat": 51.0111887,
    "lng": 13.8284522,
    "url": "https://www.google.com/maps/search/?api=1&query=Kieferorthop%C3%A4dische%20Praxis%20Dr.%20Heike%20Ridder%20Dresden"
  },
  {
    "name": "Kieferorthopäden Dr. Luck und Dr. Hansen",
    "city": "Dresden",
    "category": "dentist",
    "nameable": false,
    "entity_type": "person",
    "lat": 51.0409719,
    "lng": 13.7342902,
    "url": "https://www.google.com/maps/search/?api=1&query=Kieferorthop%C3%A4den%20Dr.%20Luck%20und%20Dr.%20Hansen%20Dresden"
  },
  {
    "name": "Zahnarztpraxis Dr. Rolf Noack",
    "city": "Dresden",
    "category": "dentist",
    "nameable": false,
    "entity_type": "person",
    "lat": 51.0340128,
    "lng": 13.7809361,
    "url": "https://www.google.com/maps/search/?api=1&query=Zahnarztpraxis%20Dr.%20Rolf%20Noack%20Dresden"
  },
  {
    "name": "Wolfram Krause",
    "city": "Dresden",
    "category": "dentist",
    "nameable": false,
    "entity_type": "person",
    "lat": 51.0562688,
    "lng": 13.7260165,
    "url": "https://www.google.com/maps/search/?api=1&query=Wolfram%20Krause%20Dresden"
  },
  {
    "name": "Zahnarztpraxis Heindel",
    "city": "Dresden",
    "category": "dentist",
    "nameable": false,
    "entity_type": "person",
    "lat": 51.003728,
    "lng": 13.7930687,
    "url": "https://www.google.com/maps/search/?api=1&query=Zahnarztpraxis%20Heindel%20Dresden"
  },
  {
    "name": "Dr. med. dent. Thomas Hoch",
    "city": "Dresden",
    "category": "dentist",
    "nameable": false,
    "entity_type": "person",
    "lat": 51.0242981,
    "lng": 13.8381085,
    "url": "https://www.google.com/maps/search/?api=1&query=Dr.%20med.%20dent.%20Thomas%20Hoch%20Dresden"
  },
  {
    "name": "Dr. med. Uta Seydewitz",
    "city": "Dresden",
    "category": "dentist",
    "nameable": false,
    "entity_type": "person",
    "lat": 51.024334,
    "lng": 13.8382176,
    "url": "https://www.google.com/maps/search/?api=1&query=Dr.%20med.%20Uta%20Seydewitz%20Dresden"
  },
  {
    "name": "Dr. Heike und Rainer Wittig",
    "city": "Dresden",
    "category": "dentist",
    "nameable": false,
    "entity_type": "person",
    "lat": 51.0536829,
    "lng": 13.8050792,
    "url": "https://www.google.com/maps/search/?api=1&query=Dr.%20Heike%20und%20Rainer%20Wittig%20Dresden"
  },
  {
    "name": "Jana Pape",
    "city": "Dresden",
    "category": "dentist",
    "nameable": false,
    "entity_type": "person",
    "lat": 51.0630407,
    "lng": 13.7437888,
    "url": "https://www.google.com/maps/search/?api=1&query=Jana%20Pape%20Dresden"
  },
  {
    "name": "Dr. Marion Heidner",
    "city": "Dresden",
    "category": "dentist",
    "nameable": false,
    "entity_type": "person",
    "lat": 51.0361568,
    "lng": 13.7514267,
    "url": "https://www.google.com/maps/search/?api=1&query=Dr.%20Marion%20Heidner%20Dresden"
  },
  {
    "name": "Dr. Michael Leider",
    "city": "Dresden",
    "category": "dentist",
    "nameable": false,
    "entity_type": "person",
    "lat": 51.0148876,
    "lng": 13.78301,
    "url": "https://www.google.com/maps/search/?api=1&query=Dr.%20Michael%20Leider%20Dresden"
  },
  {
    "name": "Zahnarztpraxis am Schloss",
    "city": "Dresden",
    "category": "dentist",
    "nameable": true,
    "entity_type": "business",
    "lat": 51.0131406,
    "lng": 13.8736239,
    "url": "https://www.google.com/maps/search/?api=1&query=Zahnarztpraxis%20am%20Schloss%20Dresden"
  },
  {
    "name": "ELBDENTAL – Praxis für Zahnheilkunde",
    "city": "Dresden",
    "category": "dentist",
    "nameable": true,
    "entity_type": "business",
    "lat": 51.0656658,
    "lng": 13.7327948,
    "url": "https://www.google.com/maps/search/?api=1&query=ELBDENTAL%20%E2%80%93%20Praxis%20f%C3%BCr%20Zahnheilkunde%20Dresden"
  },
  {
    "name": "KFO am Schillerplatz",
    "city": "Dresden",
    "category": "dentist",
    "nameable": true,
    "entity_type": "business",
    "lat": 51.051914,
    "lng": 13.8065862,
    "url": "https://www.google.com/maps/search/?api=1&query=KFO%20am%20Schillerplatz%20Dresden"
  },
  {
    "name": "Dr. Med Katrin Wirth",
    "city": "Dresden",
    "category": "dentist",
    "nameable": false,
    "entity_type": "person",
    "lat": 51.0219702,
    "lng": 13.7523979,
    "url": "https://www.google.com/maps/search/?api=1&query=Dr.%20Med%20Katrin%20Wirth%20Dresden"
  },
  {
    "name": "Zahnarztpraxis Opitz",
    "city": "Dresden",
    "category": "dentist",
    "nameable": false,
    "entity_type": "person",
    "lat": 51.0323749,
    "lng": 13.7421729,
    "url": "https://www.google.com/maps/search/?api=1&query=Zahnarztpraxis%20Opitz%20Dresden"
  },
  {
    "name": "Zahnarztpraxis Dr. Ria Schmädicke",
    "city": "Dresden",
    "category": "dentist",
    "nameable": false,
    "entity_type": "person",
    "lat": 51.0156674,
    "lng": 13.7620277,
    "url": "https://www.google.com/maps/search/?api=1&query=Zahnarztpraxis%20Dr.%20Ria%20Schm%C3%A4dicke%20Dresden"
  },
  {
    "name": "Zahnarzt Uwe Scheiba",
    "city": "Dresden",
    "category": "dentist",
    "nameable": false,
    "entity_type": "person",
    "lat": 51.0638529,
    "lng": 13.6760548,
    "url": "https://www.google.com/maps/search/?api=1&query=Zahnarzt%20Uwe%20Scheiba%20Dresden"
  },
  {
    "name": "Dr. med. dent. Kerstin Schumann",
    "city": "Dresden",
    "category": "dentist",
    "nameable": false,
    "entity_type": "person",
    "lat": 51.0323258,
    "lng": 13.7488961,
    "url": "https://www.google.com/maps/search/?api=1&query=Dr.%20med.%20dent.%20Kerstin%20Schumann%20Dresden"
  },
  {
    "name": "Ute Grünberg",
    "city": "Dresden",
    "category": "dentist",
    "nameable": false,
    "entity_type": "person",
    "lat": 51.1429325,
    "lng": 13.796944,
    "url": "https://www.google.com/maps/search/?api=1&query=Ute%20Gr%C3%BCnberg%20Dresden"
  },
  {
    "name": "Kieferorthopädische Praxis Dr. Hagemeister & Kollegen",
    "city": "Dresden",
    "category": "dentist",
    "nameable": false,
    "entity_type": "person",
    "lat": 51.0836853,
    "lng": 13.7281192,
    "url": "https://www.google.com/maps/search/?api=1&query=Kieferorthop%C3%A4dische%20Praxis%20Dr.%20Hagemeister%20%26%20Kollegen%20Dresden"
  },
  {
    "name": "Zahnärztliche Praxisgemeinschaft Reif & Schröder",
    "city": "Dresden",
    "category": "dentist",
    "nameable": false,
    "entity_type": "person",
    "lat": 51.0437273,
    "lng": 13.6789477,
    "url": "https://www.google.com/maps/search/?api=1&query=Zahn%C3%A4rztliche%20Praxisgemeinschaft%20Reif%20%26%20Schr%C3%B6der%20Dresden"
  },
  {
    "name": "Zahnarztpraxis Dr. med. dent. Kristina Lazarek-Scholz",
    "city": "Dresden",
    "category": "dentist",
    "nameable": false,
    "entity_type": "person",
    "lat": 51.0437401,
    "lng": 13.6788867,
    "url": "https://www.google.com/maps/search/?api=1&query=Zahnarztpraxis%20Dr.%20med.%20dent.%20Kristina%20Lazarek-Scholz%20Dresden"
  },
  {
    "name": "Dr. Neu/Wiesner",
    "city": "Dresden",
    "category": "dentist",
    "nameable": false,
    "entity_type": "person",
    "lat": 51.0615238,
    "lng": 13.8488435,
    "url": "https://www.google.com/maps/search/?api=1&query=Dr.%20Neu%2FWiesner%20Dresden"
  },
  {
    "name": "Kutaibah Alhadad",
    "city": "Dresden",
    "category": "dentist",
    "nameable": false,
    "entity_type": "person",
    "lat": 51.069959,
    "lng": 13.7497356,
    "url": "https://www.google.com/maps/search/?api=1&query=Kutaibah%20Alhadad%20Dresden"
  },
  {
    "name": "Dr. med. dent. Beate Gängler",
    "city": "Dresden",
    "category": "dentist",
    "nameable": false,
    "entity_type": "person",
    "lat": 51.0845171,
    "lng": 13.7077139,
    "url": "https://www.google.com/maps/search/?api=1&query=Dr.%20med.%20dent.%20Beate%20G%C3%A4ngler%20Dresden"
  },
  {
    "name": "Dr. med. Barbara Pietzonka",
    "city": "Dresden",
    "category": "dentist",
    "nameable": false,
    "entity_type": "person",
    "lat": 51.0376476,
    "lng": 13.8034297,
    "url": "https://www.google.com/maps/search/?api=1&query=Dr.%20med.%20Barbara%20Pietzonka%20Dresden"
  },
  {
    "name": "Maren Geyer",
    "city": "Dresden",
    "category": "dentist",
    "nameable": false,
    "entity_type": "person",
    "lat": 51.0585564,
    "lng": 13.6840637,
    "url": "https://www.google.com/maps/search/?api=1&query=Maren%20Geyer%20Dresden"
  },
  {
    "name": "Zahnarztpraxis Schubert, Gätke, Heinisch",
    "city": "Dresden",
    "category": "dentist",
    "nameable": false,
    "entity_type": "person",
    "lat": 51.0778614,
    "lng": 13.7178506,
    "url": "https://www.google.com/maps/search/?api=1&query=Zahnarztpraxis%20Schubert%2C%20G%C3%A4tke%2C%20Heinisch%20Dresden"
  },
  {
    "name": "Zahnarztpraxis Forker",
    "city": "Dresden",
    "category": "dentist",
    "nameable": false,
    "entity_type": "person",
    "lat": 51.0432715,
    "lng": 13.6330648,
    "url": "https://www.google.com/maps/search/?api=1&query=Zahnarztpraxis%20Forker%20Dresden"
  },
  {
    "name": "Zahnarzt Dr. Heider",
    "city": "Dresden",
    "category": "dentist",
    "nameable": false,
    "entity_type": "person",
    "lat": 51.0470256,
    "lng": 13.7324805,
    "url": "https://www.google.com/maps/search/?api=1&query=Zahnarzt%20Dr.%20Heider%20Dresden"
  },
  {
    "name": "Golden Smile Zahnarztpraxis",
    "city": "Dresden",
    "category": "dentist",
    "nameable": false,
    "entity_type": "person",
    "lat": 51.0789923,
    "lng": 13.7214899,
    "url": "https://www.google.com/maps/search/?api=1&query=Golden%20Smile%20Zahnarztpraxis%20Dresden"
  },
  {
    "name": "Oralchirurgie Dr. med. dent. Sendler",
    "city": "Dresden",
    "category": "dentist",
    "nameable": false,
    "entity_type": "person",
    "lat": 51.0446962,
    "lng": 13.6923579,
    "url": "https://www.google.com/maps/search/?api=1&query=Oralchirurgie%20Dr.%20med.%20dent.%20Sendler%20Dresden"
  },
  {
    "name": "Dr. Katrin Weile",
    "city": "Dresden",
    "category": "dentist",
    "nameable": false,
    "entity_type": "person",
    "lat": 51.0715899,
    "lng": 13.7503414,
    "url": "https://www.google.com/maps/search/?api=1&query=Dr.%20Katrin%20Weile%20Dresden"
  },
  {
    "name": "bittner dental",
    "city": "Dresden",
    "category": "dentist",
    "nameable": true,
    "entity_type": "business",
    "lat": 51.0541095,
    "lng": 13.7281544,
    "url": "https://www.google.com/maps/search/?api=1&query=bittner%20dental%20Dresden"
  },
  {
    "name": "Zahnärzte in Stetzsch",
    "city": "Dresden",
    "category": "dentist",
    "nameable": true,
    "entity_type": "business",
    "lat": 51.0828899,
    "lng": 13.6545505,
    "url": "https://www.google.com/maps/search/?api=1&query=Zahn%C3%A4rzte%20in%20Stetzsch%20Dresden"
  },
  {
    "name": "Zahnarztpraxis Dr. med. dent. Oliver Sommer-Krenz",
    "city": "Dresden",
    "category": "dentist",
    "nameable": false,
    "entity_type": "person",
    "lat": 51.0091113,
    "lng": 13.8268704,
    "url": "https://www.google.com/maps/search/?api=1&query=Zahnarztpraxis%20Dr.%20med.%20dent.%20Oliver%20Sommer-Krenz%20Dresden"
  },
  {
    "name": "Zahnheilkunde - Haus 28",
    "city": "Dresden",
    "category": "dentist",
    "nameable": true,
    "entity_type": "business",
    "lat": 51.0562181,
    "lng": 13.7828753,
    "url": "https://www.google.com/maps/search/?api=1&query=Zahnheilkunde%20-%20Haus%2028%20Dresden"
  },
  {
    "name": "Kieferorthopädie am Königswald",
    "city": "Dresden",
    "category": "dentist",
    "nameable": true,
    "entity_type": "business",
    "lat": 51.1192136,
    "lng": 13.777865,
    "url": "https://www.google.com/maps/search/?api=1&query=Kieferorthop%C3%A4die%20am%20K%C3%B6nigswald%20Dresden"
  },
  {
    "name": "Dr. med. dent. Cornelia Hengl Zahnärztin",
    "city": "Dresden",
    "category": "dentist",
    "nameable": false,
    "entity_type": "person",
    "lat": 51.0084633,
    "lng": 13.8562493,
    "url": "https://www.google.com/maps/search/?api=1&query=Dr.%20med.%20dent.%20Cornelia%20Hengl%20Zahn%C3%A4rztin%20Dresden"
  },
  {
    "name": "Zahnarztpraxis Pönisch",
    "city": "Dresden",
    "category": "dentist",
    "nameable": false,
    "entity_type": "person",
    "lat": 51.0397264,
    "lng": 13.6464771,
    "url": "https://www.google.com/maps/search/?api=1&query=Zahnarztpraxis%20P%C3%B6nisch%20Dresden"
  },
  {
    "name": "Zahnarztpraxis Dr. Müller",
    "city": "Dresden",
    "category": "dentist",
    "nameable": false,
    "entity_type": "person",
    "lat": 51.0489797,
    "lng": 13.6849402,
    "url": "https://www.google.com/maps/search/?api=1&query=Zahnarztpraxis%20Dr.%20M%C3%BCller%20Dresden"
  },
  {
    "name": "Zahnarztpraxis Dr. Heike Ridder & Denise Henke",
    "city": "Dresden",
    "category": "dentist",
    "nameable": false,
    "entity_type": "person",
    "lat": 51.0111863,
    "lng": 13.8284578,
    "url": "https://www.google.com/maps/search/?api=1&query=Zahnarztpraxis%20Dr.%20Heike%20Ridder%20%26%20Denise%20Henke%20Dresden"
  },
  {
    "name": "Dr. med. dent. Enrico Anlauf",
    "city": "Dresden",
    "category": "dentist",
    "nameable": false,
    "entity_type": "person",
    "lat": 51.0317466,
    "lng": 13.8966226,
    "url": "https://www.google.com/maps/search/?api=1&query=Dr.%20med.%20dent.%20Enrico%20Anlauf%20Dresden"
  },
  {
    "name": "Oralchirugie Dresden",
    "city": "Dresden",
    "category": "dentist",
    "nameable": true,
    "entity_type": "business",
    "lat": 51.0378086,
    "lng": 13.7800549,
    "url": "https://www.google.com/maps/search/?api=1&query=Oralchirugie%20Dresden%20Dresden"
  },
  {
    "name": "Kinder- und Jugendzahnklinik Rosenbergstraße",
    "city": "Dresden",
    "category": "dentist",
    "nameable": false,
    "entity_type": "person",
    "lat": 51.0329099,
    "lng": 13.7871854,
    "url": "https://www.google.com/maps/search/?api=1&query=Kinder-%20und%20Jugendzahnklinik%20Rosenbergstra%C3%9Fe%20Dresden"
  },
  {
    "name": "Zahnarztpraxis Dr. Heike Obierski",
    "city": "Dresden",
    "category": "dentist",
    "nameable": false,
    "entity_type": "person",
    "lat": 51.0329662,
    "lng": 13.7871745,
    "url": "https://www.google.com/maps/search/?api=1&query=Zahnarztpraxis%20Dr.%20Heike%20Obierski%20Dresden"
  },
  {
    "name": "Zahnarztpraxis Würkert",
    "city": "Dresden",
    "category": "dentist",
    "nameable": false,
    "entity_type": "person",
    "lat": 51.0330003,
    "lng": 13.7871362,
    "url": "https://www.google.com/maps/search/?api=1&query=Zahnarztpraxis%20W%C3%BCrkert%20Dresden"
  },
  {
    "name": "Zahnarztpraxis Dr. med. Katrin Böhme",
    "city": "Dresden",
    "category": "dentist",
    "nameable": false,
    "entity_type": "person",
    "lat": 51.0322672,
    "lng": 13.7209066,
    "url": "https://www.google.com/maps/search/?api=1&query=Zahnarztpraxis%20Dr.%20med.%20Katrin%20B%C3%B6hme%20Dresden"
  },
  {
    "name": "Dr. med. Antje Rahrisch",
    "city": "Dresden",
    "category": "doctors",
    "nameable": false,
    "entity_type": "person",
    "lat": 51.0493713,
    "lng": 13.7553608,
    "url": "https://www.google.com/maps/search/?api=1&query=Dr.%20med.%20Antje%20Rahrisch%20Dresden"
  },
  {
    "name": "Praxisgemeinschaft Müller",
    "city": "Dresden",
    "category": "doctors",
    "nameable": false,
    "entity_type": "person",
    "lat": 51.0509382,
    "lng": 13.7754097,
    "url": "https://www.google.com/maps/search/?api=1&query=Praxisgemeinschaft%20M%C3%BCller%20Dresden"
  },
  {
    "name": "Dermatologische Praxis",
    "city": "Dresden",
    "category": "doctors",
    "nameable": true,
    "entity_type": "business",
    "lat": 51.1185827,
    "lng": 13.7905713,
    "url": "https://www.google.com/maps/search/?api=1&query=Dermatologische%20Praxis%20Dresden"
  },
  {
    "name": "Dr. Claudia Krenkel und Dipl.-Med. Regina Krug Gemeinschaftspraxis",
    "city": "Dresden",
    "category": "doctors",
    "nameable": false,
    "entity_type": "person",
    "lat": 51.0489477,
    "lng": 13.7899602,
    "url": "https://www.google.com/maps/search/?api=1&query=Dr.%20Claudia%20Krenkel%20und%20Dipl.-Med.%20Regina%20Krug%20Gemeinschaftspraxis%20Dresden"
  },
  {
    "name": "Oralchirugie Dr. med. dent. Arar",
    "city": "Dresden",
    "category": "doctors",
    "nameable": false,
    "entity_type": "person",
    "lat": 51.0626977,
    "lng": 13.7423161,
    "url": "https://www.google.com/maps/search/?api=1&query=Oralchirugie%20Dr.%20med.%20dent.%20Arar%20Dresden"
  },
  {
    "name": "Psychotherapeuth",
    "city": "Dresden",
    "category": "doctors",
    "nameable": true,
    "entity_type": "business",
    "lat": 51.0623976,
    "lng": 13.7412998,
    "url": "https://www.google.com/maps/search/?api=1&query=Psychotherapeuth%20Dresden"
  },
  {
    "name": "Dr. med. Silvia Dornfeld",
    "city": "Dresden",
    "category": "doctors",
    "nameable": false,
    "entity_type": "person",
    "lat": 51.0490563,
    "lng": 13.7791224,
    "url": "https://www.google.com/maps/search/?api=1&query=Dr.%20med.%20Silvia%20Dornfeld%20Dresden"
  },
  {
    "name": "Dr. Med. Claudia Brockelt",
    "city": "Dresden",
    "category": "doctors",
    "nameable": false,
    "entity_type": "person",
    "lat": 51.0421318,
    "lng": 13.6692721,
    "url": "https://www.google.com/maps/search/?api=1&query=Dr.%20Med.%20Claudia%20Brockelt%20Dresden"
  },
  {
    "name": "Ärztehaus Strehlen",
    "city": "Dresden",
    "category": "doctors",
    "nameable": false,
    "entity_type": "person",
    "lat": 51.0257277,
    "lng": 13.754562,
    "url": "https://www.google.com/maps/search/?api=1&query=%C3%84rztehaus%20Strehlen%20Dresden"
  },
  {
    "name": "Dr. D. Schyra",
    "city": "Dresden",
    "category": "doctors",
    "nameable": false,
    "entity_type": "person",
    "lat": 51.1098134,
    "lng": 13.7607754,
    "url": "https://www.google.com/maps/search/?api=1&query=Dr.%20D.%20Schyra%20Dresden"
  },
  {
    "name": "Frank-Steffen Hahn",
    "city": "Dresden",
    "category": "doctors",
    "nameable": false,
    "entity_type": "person",
    "lat": 51.031833,
    "lng": 13.7308508,
    "url": "https://www.google.com/maps/search/?api=1&query=Frank-Steffen%20Hahn%20Dresden"
  },
  {
    "name": "Thomas Baumgart",
    "city": "Dresden",
    "category": "doctors",
    "nameable": false,
    "entity_type": "person",
    "lat": 51.0318168,
    "lng": 13.7309447,
    "url": "https://www.google.com/maps/search/?api=1&query=Thomas%20Baumgart%20Dresden"
  },
  {
    "name": "Dr. Lorenzen",
    "city": "Dresden",
    "category": "doctors",
    "nameable": false,
    "entity_type": "person",
    "lat": 51.1281989,
    "lng": 13.845649,
    "url": "https://www.google.com/maps/search/?api=1&query=Dr.%20Lorenzen%20Dresden"
  },
  {
    "name": "Physiotherapie Hellerau",
    "city": "Dresden",
    "category": "doctors",
    "nameable": true,
    "entity_type": "business",
    "lat": 51.1092673,
    "lng": 13.7608341,
    "url": "https://www.google.com/maps/search/?api=1&query=Physiotherapie%20Hellerau%20Dresden"
  },
  {
    "name": "Podologische Praxis Christin Kluttig",
    "city": "Dresden",
    "category": "doctors",
    "nameable": false,
    "entity_type": "person",
    "lat": 51.0472,
    "lng": 13.7768089,
    "url": "https://www.google.com/maps/search/?api=1&query=Podologische%20Praxis%20Christin%20Kluttig%20Dresden"
  },
  {
    "name": "Die Frauenpraxis Dresden",
    "city": "Dresden",
    "category": "doctors",
    "nameable": true,
    "entity_type": "business",
    "lat": 51.0475235,
    "lng": 13.7764165,
    "url": "https://www.google.com/maps/search/?api=1&query=Die%20Frauenpraxis%20Dresden%20Dresden"
  },
  {
    "name": "Dr. med. Thomas Rothe / Knut Hofmann",
    "city": "Dresden",
    "category": "doctors",
    "nameable": false,
    "entity_type": "person",
    "lat": 51.0946217,
    "lng": 13.7200998,
    "url": "https://www.google.com/maps/search/?api=1&query=Dr.%20med.%20Thomas%20Rothe%20%2F%20Knut%20Hofmann%20Dresden"
  },
  {
    "name": "Torsten Haase FA f. Innere Medizin",
    "city": "Dresden",
    "category": "doctors",
    "nameable": false,
    "entity_type": "person",
    "lat": 51.0948539,
    "lng": 13.7198247,
    "url": "https://www.google.com/maps/search/?api=1&query=Torsten%20Haase%20FA%20f.%20Innere%20Medizin%20Dresden"
  },
  {
    "name": "Gemeinschaftspraxis Dr. med. Alexander Defèr und Dr. med. Charlotte Mierke Fachärzte f. Allgemeinmedizin",
    "city": "Dresden",
    "category": "doctors",
    "nameable": false,
    "entity_type": "person",
    "lat": 51.0849054,
    "lng": 13.7272728,
    "url": "https://www.google.com/maps/search/?api=1&query=Gemeinschaftspraxis%20Dr.%20med.%20Alexander%20Def%C3%A8r%20und%20Dr.%20med.%20Charlotte%20Mierke%20Fach%C3%A4rzte%20f.%20Allgemeinmedizin%20Dresden"
  },
  {
    "name": "Dr. Irina Zaiser",
    "city": "Dresden",
    "category": "doctors",
    "nameable": false,
    "entity_type": "person",
    "lat": 51.0077902,
    "lng": 13.8480986,
    "url": "https://www.google.com/maps/search/?api=1&query=Dr.%20Irina%20Zaiser%20Dresden"
  },
  {
    "name": "Dres. Klaus u. Burgis-Michaele Heckemann",
    "city": "Dresden",
    "category": "doctors",
    "nameable": false,
    "entity_type": "person",
    "lat": 51.0070001,
    "lng": 13.8554312,
    "url": "https://www.google.com/maps/search/?api=1&query=Dres.%20Klaus%20u.%20Burgis-Michaele%20Heckemann%20Dresden"
  },
  {
    "name": "Dr. Silke Müller",
    "city": "Dresden",
    "category": "doctors",
    "nameable": false,
    "entity_type": "person",
    "lat": 51.1223817,
    "lng": 13.7917317,
    "url": "https://www.google.com/maps/search/?api=1&query=Dr.%20Silke%20M%C3%BCller%20Dresden"
  },
  {
    "name": "Dr. Norbert Missel",
    "city": "Dresden",
    "category": "doctors",
    "nameable": false,
    "entity_type": "person",
    "lat": 51.1224116,
    "lng": 13.7916841,
    "url": "https://www.google.com/maps/search/?api=1&query=Dr.%20Norbert%20Missel%20Dresden"
  },
  {
    "name": "Doceins Hausärztliche Versorgung",
    "city": "Dresden",
    "category": "doctors",
    "nameable": false,
    "entity_type": "person",
    "lat": 51.0227336,
    "lng": 13.7431401,
    "url": "https://www.google.com/maps/search/?api=1&query=Doceins%20Haus%C3%A4rztliche%20Versorgung%20Dresden"
  },
  {
    "name": "Hausarztpraxis Krumbach",
    "city": "Dresden",
    "category": "doctors",
    "nameable": false,
    "entity_type": "person",
    "lat": 51.0444347,
    "lng": 13.7966193,
    "url": "https://www.google.com/maps/search/?api=1&query=Hausarztpraxis%20Krumbach%20Dresden"
  },
  {
    "name": "labopart - Medizinische Laboratorien",
    "city": "Dresden",
    "category": "doctors",
    "nameable": false,
    "entity_type": "person",
    "lat": 51.0811145,
    "lng": 13.7215683,
    "url": "https://www.google.com/maps/search/?api=1&query=labopart%20-%20Medizinische%20Laboratorien%20Dresden"
  },
  {
    "name": "Praxis für traditionelle chinesische Medizin",
    "city": "Dresden",
    "category": "doctors",
    "nameable": true,
    "entity_type": "business",
    "lat": 51.0480855,
    "lng": 13.7988092,
    "url": "https://www.google.com/maps/search/?api=1&query=Praxis%20f%C3%BCr%20traditionelle%20chinesische%20Medizin%20Dresden"
  },
  {
    "name": "Psychologische Praxis Striesen",
    "city": "Dresden",
    "category": "doctors",
    "nameable": true,
    "entity_type": "business",
    "lat": 51.0481054,
    "lng": 13.7988225,
    "url": "https://www.google.com/maps/search/?api=1&query=Psychologische%20Praxis%20Striesen%20Dresden"
  },
  {
    "name": "Dr. med. Kristina Reißmann",
    "city": "Dresden",
    "category": "doctors",
    "nameable": false,
    "entity_type": "person",
    "lat": 51.0946359,
    "lng": 13.7201089,
    "url": "https://www.google.com/maps/search/?api=1&query=Dr.%20med.%20Kristina%20Rei%C3%9Fmann%20Dresden"
  },
  {
    "name": "Kinderarztpraxis Dr. med. Hoyer & Dr. med. Fiebig",
    "city": "Dresden",
    "category": "doctors",
    "nameable": false,
    "entity_type": "person",
    "lat": 51.0946097,
    "lng": 13.7201288,
    "url": "https://www.google.com/maps/search/?api=1&query=Kinderarztpraxis%20Dr.%20med.%20Hoyer%20%26%20Dr.%20med.%20Fiebig%20Dresden"
  },
  {
    "name": "Dr. med. Daniela Tauscher",
    "city": "Dresden",
    "category": "doctors",
    "nameable": false,
    "entity_type": "person",
    "lat": 51.0940654,
    "lng": 13.7199851,
    "url": "https://www.google.com/maps/search/?api=1&query=Dr.%20med.%20Daniela%20Tauscher%20Dresden"
  },
  {
    "name": "Dipl.-Med. Helmut Schubarth",
    "city": "Dresden",
    "category": "doctors",
    "nameable": false,
    "entity_type": "person",
    "lat": 51.0949491,
    "lng": 13.7198403,
    "url": "https://www.google.com/maps/search/?api=1&query=Dipl.-Med.%20Helmut%20Schubarth%20Dresden"
  },
  {
    "name": "Anja Heinrich",
    "city": "Dresden",
    "category": "doctors",
    "nameable": false,
    "entity_type": "person",
    "lat": 51.027922,
    "lng": 13.7453583,
    "url": "https://www.google.com/maps/search/?api=1&query=Anja%20Heinrich%20Dresden"
  },
  {
    "name": "Regina Kunert",
    "city": "Dresden",
    "category": "doctors",
    "nameable": false,
    "entity_type": "person",
    "lat": 51.0302427,
    "lng": 13.8198154,
    "url": "https://www.google.com/maps/search/?api=1&query=Regina%20Kunert%20Dresden"
  },
  {
    "name": "Nervenheilkunde Dr. med. Siegbert Oechel",
    "city": "Dresden",
    "category": "doctors",
    "nameable": false,
    "entity_type": "person",
    "lat": 51.0363885,
    "lng": 13.7844278,
    "url": "https://www.google.com/maps/search/?api=1&query=Nervenheilkunde%20Dr.%20med.%20Siegbert%20Oechel%20Dresden"
  },
  {
    "name": "Praxisgemeinschaft Heike Maiter-Sehr, Regina Albrecht",
    "city": "Dresden",
    "category": "doctors",
    "nameable": false,
    "entity_type": "person",
    "lat": 51.0649003,
    "lng": 13.6666508,
    "url": "https://www.google.com/maps/search/?api=1&query=Praxisgemeinschaft%20Heike%20Maiter-Sehr%2C%20Regina%20Albrecht%20Dresden"
  },
  {
    "name": "Praxis für Allgemeinmedizin Antje Vogelgesang",
    "city": "Dresden",
    "category": "doctors",
    "nameable": false,
    "entity_type": "person",
    "lat": 51.0363231,
    "lng": 13.8537385,
    "url": "https://www.google.com/maps/search/?api=1&query=Praxis%20f%C3%BCr%20Allgemeinmedizin%20Antje%20Vogelgesang%20Dresden"
  },
  {
    "name": "Dipl.-med. Petra Teßmann",
    "city": "Dresden",
    "category": "doctors",
    "nameable": false,
    "entity_type": "person",
    "lat": 51.0199428,
    "lng": 13.7174072,
    "url": "https://www.google.com/maps/search/?api=1&query=Dipl.-med.%20Petra%20Te%C3%9Fmann%20Dresden"
  },
  {
    "name": "Dr. med. Ina Funke - FÄ für Innere Medizin / Kardiologie",
    "city": "Dresden",
    "category": "doctors",
    "nameable": false,
    "entity_type": "person",
    "lat": 51.0451906,
    "lng": 13.6229448,
    "url": "https://www.google.com/maps/search/?api=1&query=Dr.%20med.%20Ina%20Funke%20-%20F%C3%84%20f%C3%BCr%20Innere%20Medizin%20%2F%20Kardiologie%20Dresden"
  },
  {
    "name": "Augenarztpraxis Dallmann & Teich",
    "city": "Dresden",
    "category": "doctors",
    "nameable": false,
    "entity_type": "person",
    "lat": 51.0632018,
    "lng": 13.7514601,
    "url": "https://www.google.com/maps/search/?api=1&query=Augenarztpraxis%20Dallmann%20%26%20Teich%20Dresden"
  },
  {
    "name": "Dr. med. Regina Matthes",
    "city": "Dresden",
    "category": "doctors",
    "nameable": false,
    "entity_type": "person",
    "lat": 51.063488,
    "lng": 13.8217129,
    "url": "https://www.google.com/maps/search/?api=1&query=Dr.%20med.%20Regina%20Matthes%20Dresden"
  },
  {
    "name": "Ärztliche Bereitschaftspraxis",
    "city": "Dresden",
    "category": "doctors",
    "nameable": false,
    "entity_type": "person",
    "lat": 51.0562803,
    "lng": 13.782648,
    "url": "https://www.google.com/maps/search/?api=1&query=%C3%84rztliche%20Bereitschaftspraxis%20Dresden"
  },
  {
    "name": "Medizinisches Versorgungszentrum Dresden-West",
    "city": "Dresden",
    "category": "doctors",
    "nameable": false,
    "entity_type": "person",
    "lat": 51.0352207,
    "lng": 13.7054163,
    "url": "https://www.google.com/maps/search/?api=1&query=Medizinisches%20Versorgungszentrum%20Dresden-West%20Dresden"
  },
  {
    "name": "Frauenarzt Praxis",
    "city": "Dresden",
    "category": "doctors",
    "nameable": true,
    "entity_type": "business",
    "lat": 51.062097,
    "lng": 13.8391041,
    "url": "https://www.google.com/maps/search/?api=1&query=Frauenarzt%20Praxis%20Dresden"
  },
  {
    "name": "Dr. med. Mirko Brudzinski",
    "city": "Dresden",
    "category": "doctors",
    "nameable": false,
    "entity_type": "person",
    "lat": 51.0322028,
    "lng": 13.6996536,
    "url": "https://www.google.com/maps/search/?api=1&query=Dr.%20med.%20Mirko%20Brudzinski%20Dresden"
  },
  {
    "name": "Privatpraxis Orthopädie und Sportmedizin - Dr. med. Axel Klein",
    "city": "Dresden",
    "category": "doctors",
    "nameable": false,
    "entity_type": "person",
    "lat": 51.0421431,
    "lng": 13.625143,
    "url": "https://www.google.com/maps/search/?api=1&query=Privatpraxis%20Orthop%C3%A4die%20und%20Sportmedizin%20-%20Dr.%20med.%20Axel%20Klein%20Dresden"
  },
  {
    "name": "Hausarztpraxis Caterina Jürgens",
    "city": "Dresden",
    "category": "doctors",
    "nameable": false,
    "entity_type": "person",
    "lat": 51.0539569,
    "lng": 13.7801636,
    "url": "https://www.google.com/maps/search/?api=1&query=Hausarztpraxis%20Caterina%20J%C3%BCrgens%20Dresden"
  },
  {
    "name": "Praxis für Kinderkardiologie",
    "city": "Dresden",
    "category": "doctors",
    "nameable": true,
    "entity_type": "business",
    "lat": 51.0591054,
    "lng": 13.722191,
    "url": "https://www.google.com/maps/search/?api=1&query=Praxis%20f%C3%BCr%20Kinderkardiologie%20Dresden"
  },
  {
    "name": "Ärztehaus",
    "city": "Dresden",
    "category": "doctors",
    "nameable": true,
    "entity_type": "business",
    "lat": 51.0420808,
    "lng": 13.699054,
    "url": "https://www.google.com/maps/search/?api=1&query=%C3%84rztehaus%20Dresden"
  },
  {
    "name": "Praxis Dr. Jenke",
    "city": "Dresden",
    "category": "doctors",
    "nameable": false,
    "entity_type": "person",
    "lat": 51.0715387,
    "lng": 13.7511249,
    "url": "https://www.google.com/maps/search/?api=1&query=Praxis%20Dr.%20Jenke%20Dresden"
  },
  {
    "name": "Praxis am Falkenbrunnen",
    "city": "Dresden",
    "category": "doctors",
    "nameable": true,
    "entity_type": "business",
    "lat": 51.0336309,
    "lng": 13.7099175,
    "url": "https://www.google.com/maps/search/?api=1&query=Praxis%20am%20Falkenbrunnen%20Dresden"
  },
  {
    "name": "Dr. med. Anke Förster",
    "city": "Dresden",
    "category": "doctors",
    "nameable": false,
    "entity_type": "person",
    "lat": 51.140117,
    "lng": 13.7984576,
    "url": "https://www.google.com/maps/search/?api=1&query=Dr.%20med.%20Anke%20F%C3%B6rster%20Dresden"
  },
  {
    "name": "Hausarztpraxis Dr. Komar, Dr. Giese",
    "city": "Dresden",
    "category": "doctors",
    "nameable": false,
    "entity_type": "person",
    "lat": 51.0633929,
    "lng": 13.8235539,
    "url": "https://www.google.com/maps/search/?api=1&query=Hausarztpraxis%20Dr.%20Komar%2C%20Dr.%20Giese%20Dresden"
  },
  {
    "name": "Augentagesklinik Lockwitzgrund",
    "city": "Dresden",
    "category": "doctors",
    "nameable": false,
    "entity_type": "person",
    "lat": 50.9840085,
    "lng": 13.7984765,
    "url": "https://www.google.com/maps/search/?api=1&query=Augentagesklinik%20Lockwitzgrund%20Dresden"
  },
  {
    "name": "Gemeinschaftspraxis Dr. med. Schindler",
    "city": "Dresden",
    "category": "doctors",
    "nameable": false,
    "entity_type": "person",
    "lat": 51.0383933,
    "lng": 13.7769176,
    "url": "https://www.google.com/maps/search/?api=1&query=Gemeinschaftspraxis%20Dr.%20med.%20Schindler%20Dresden"
  },
  {
    "name": "Frauenarztpraxis Elisabeth Wolf",
    "city": "Dresden",
    "category": "doctors",
    "nameable": false,
    "entity_type": "person",
    "lat": 51.0674292,
    "lng": 13.747598,
    "url": "https://www.google.com/maps/search/?api=1&query=Frauenarztpraxis%20Elisabeth%20Wolf%20Dresden"
  },
  {
    "name": "Dr. med. André Markendorf",
    "city": "Dresden",
    "category": "doctors",
    "nameable": false,
    "entity_type": "person",
    "lat": 51.063185,
    "lng": 13.8216002,
    "url": "https://www.google.com/maps/search/?api=1&query=Dr.%20med.%20Andr%C3%A9%20Markendorf%20Dresden"
  },
  {
    "name": "Augenarztpraxis Dipl.-Med. Ralph Kunerth",
    "city": "Dresden",
    "category": "doctors",
    "nameable": false,
    "entity_type": "person",
    "lat": 51.092289,
    "lng": 13.7214188,
    "url": "https://www.google.com/maps/search/?api=1&query=Augenarztpraxis%20Dipl.-Med.%20Ralph%20Kunerth%20Dresden"
  },
  {
    "name": "Dipl.-Psych.Dipl.-Theol. Nina Chatterjee",
    "city": "Dresden",
    "category": "doctors",
    "nameable": false,
    "entity_type": "person",
    "lat": 51.0943423,
    "lng": 13.7198894,
    "url": "https://www.google.com/maps/search/?api=1&query=Dipl.-Psych.Dipl.-Theol.%20Nina%20Chatterjee%20Dresden"
  },
  {
    "name": "Physiopur",
    "city": "Dresden",
    "category": "doctors",
    "nameable": true,
    "entity_type": "business",
    "lat": 51.0346265,
    "lng": 13.7242995,
    "url": "https://www.google.com/maps/search/?api=1&query=Physiopur%20Dresden"
  },
  {
    "name": "Dr. med. Andreas Martin",
    "city": "Dresden",
    "category": "doctors",
    "nameable": false,
    "entity_type": "person",
    "lat": 51.0328798,
    "lng": 13.7214723,
    "url": "https://www.google.com/maps/search/?api=1&query=Dr.%20med.%20Andreas%20Martin%20Dresden"
  },
  {
    "name": "Dr. Markus Enderlein",
    "city": "Dresden",
    "category": "doctors",
    "nameable": false,
    "entity_type": "person",
    "lat": 51.0367864,
    "lng": 13.8849531,
    "url": "https://www.google.com/maps/search/?api=1&query=Dr.%20Markus%20Enderlein%20Dresden"
  },
  {
    "name": "Dr. med. Dirk Elsner",
    "city": "Dresden",
    "category": "doctors",
    "nameable": false,
    "entity_type": "person",
    "lat": 51.0331288,
    "lng": 13.8943329,
    "url": "https://www.google.com/maps/search/?api=1&query=Dr.%20med.%20Dirk%20Elsner%20Dresden"
  },
  {
    "name": "Marion Heidel",
    "city": "Dresden",
    "category": "doctors",
    "nameable": false,
    "entity_type": "person",
    "lat": 51.0331275,
    "lng": 13.8943549,
    "url": "https://www.google.com/maps/search/?api=1&query=Marion%20Heidel%20Dresden"
  },
  {
    "name": "Physio-Med Therapiezentrum",
    "city": "Dresden",
    "category": "doctors",
    "nameable": false,
    "entity_type": "person",
    "lat": 51.0330169,
    "lng": 13.8946207,
    "url": "https://www.google.com/maps/search/?api=1&query=Physio-Med%20Therapiezentrum%20Dresden"
  },
  {
    "name": "Hautarzt Praxisgemeinschaft Dr. Haß & Nelskamp",
    "city": "Dresden",
    "category": "doctors",
    "nameable": false,
    "entity_type": "person",
    "lat": 51.0435502,
    "lng": 13.781912,
    "url": "https://www.google.com/maps/search/?api=1&query=Hautarzt%20Praxisgemeinschaft%20Dr.%20Ha%C3%9F%20%26%20Nelskamp%20Dresden"
  },
  {
    "name": "Augenarzt-Gemeinschaftspraxis Dr. Peter Richter, Dr. Iska Capek und Dr. Franziska Fraundorf",
    "city": "Dresden",
    "category": "doctors",
    "nameable": false,
    "entity_type": "person",
    "lat": 51.0623087,
    "lng": 13.7444978,
    "url": "https://www.google.com/maps/search/?api=1&query=Augenarzt-Gemeinschaftspraxis%20Dr.%20Peter%20Richter%2C%20Dr.%20Iska%20Capek%20und%20Dr.%20Franziska%20Fraundorf%20Dresden"
  },
  {
    "name": "Augen Centrum Dresden",
    "city": "Dresden",
    "category": "doctors",
    "nameable": false,
    "entity_type": "person",
    "lat": 51.0463039,
    "lng": 13.7348516,
    "url": "https://www.google.com/maps/search/?api=1&query=Augen%20Centrum%20Dresden%20Dresden"
  },
  {
    "name": "Dr. med. Christin Lorenz",
    "city": "Dresden",
    "category": "doctors",
    "nameable": false,
    "entity_type": "person",
    "lat": 51.0376806,
    "lng": 13.8529763,
    "url": "https://www.google.com/maps/search/?api=1&query=Dr.%20med.%20Christin%20Lorenz%20Dresden"
  },
  {
    "name": "Dr. med. Evelyn Flath",
    "city": "Dresden",
    "category": "doctors",
    "nameable": false,
    "entity_type": "person",
    "lat": 51.0471251,
    "lng": 13.7659405,
    "url": "https://www.google.com/maps/search/?api=1&query=Dr.%20med.%20Evelyn%20Flath%20Dresden"
  },
  {
    "name": "Dr. Töpolt",
    "city": "Dresden",
    "category": "doctors",
    "nameable": false,
    "entity_type": "person",
    "lat": 51.040463,
    "lng": 13.691867,
    "url": "https://www.google.com/maps/search/?api=1&query=Dr.%20T%C3%B6polt%20Dresden"
  },
  {
    "name": "Priv. Doz. Dr. med. Gerhard Heptner/Dr. med Johanna Wunderer-Heger",
    "city": "Dresden",
    "category": "doctors",
    "nameable": false,
    "entity_type": "person",
    "lat": 51.0324737,
    "lng": 13.7334595,
    "url": "https://www.google.com/maps/search/?api=1&query=Priv.%20Doz.%20Dr.%20med.%20Gerhard%20Heptner%2FDr.%20med%20Johanna%20Wunderer-Heger%20Dresden"
  },
  {
    "name": "Dr. med. Ina Baumann/Dr. med. Heike Koch",
    "city": "Dresden",
    "category": "doctors",
    "nameable": false,
    "entity_type": "person",
    "lat": 51.0324548,
    "lng": 13.7334412,
    "url": "https://www.google.com/maps/search/?api=1&query=Dr.%20med.%20Ina%20Baumann%2FDr.%20med.%20Heike%20Koch%20Dresden"
  },
  {
    "name": "Dipl.-Stom. Michaela Lorenz",
    "city": "Dresden",
    "category": "doctors",
    "nameable": false,
    "entity_type": "person",
    "lat": 51.0324442,
    "lng": 13.7334877,
    "url": "https://www.google.com/maps/search/?api=1&query=Dipl.-Stom.%20Michaela%20Lorenz%20Dresden"
  },
  {
    "name": "Dr. med. Christina Grundig/Dr. med. Michael Grundig",
    "city": "Dresden",
    "category": "doctors",
    "nameable": false,
    "entity_type": "person",
    "lat": 51.0325194,
    "lng": 13.733467,
    "url": "https://www.google.com/maps/search/?api=1&query=Dr.%20med.%20Christina%20Grundig%2FDr.%20med.%20Michael%20Grundig%20Dresden"
  },
  {
    "name": "Dr. med. Elke Held, Frauenarztpraxis",
    "city": "Dresden",
    "category": "doctors",
    "nameable": false,
    "entity_type": "person",
    "lat": 51.0207174,
    "lng": 13.7489059,
    "url": "https://www.google.com/maps/search/?api=1&query=Dr.%20med.%20Elke%20Held%2C%20Frauenarztpraxis%20Dresden"
  },
  {
    "name": "Dr. med. Joachim Piatkowski",
    "city": "Dresden",
    "category": "doctors",
    "nameable": false,
    "entity_type": "person",
    "lat": 51.0311028,
    "lng": 13.7463086,
    "url": "https://www.google.com/maps/search/?api=1&query=Dr.%20med.%20Joachim%20Piatkowski%20Dresden"
  },
  {
    "name": "Prof. Dr. habil. Bernhard Piatkowski",
    "city": "Dresden",
    "category": "doctors",
    "nameable": false,
    "entity_type": "person",
    "lat": 51.0311048,
    "lng": 13.7462793,
    "url": "https://www.google.com/maps/search/?api=1&query=Prof.%20Dr.%20habil.%20Bernhard%20Piatkowski%20Dresden"
  },
  {
    "name": "Endokrinologikum",
    "city": "Dresden",
    "category": "doctors",
    "nameable": true,
    "entity_type": "business",
    "lat": 51.041472,
    "lng": 13.7347405,
    "url": "https://www.google.com/maps/search/?api=1&query=Endokrinologikum%20Dresden"
  },
  {
    "name": "Dr. med. Abdo Taraben",
    "city": "Dresden",
    "category": "doctors",
    "nameable": false,
    "entity_type": "person",
    "lat": 51.0905591,
    "lng": 13.7062479,
    "url": "https://www.google.com/maps/search/?api=1&query=Dr.%20med.%20Abdo%20Taraben%20Dresden"
  },
  {
    "name": "Podologie Felicitas Walter",
    "city": "Dresden",
    "category": "doctors",
    "nameable": false,
    "entity_type": "person",
    "lat": 51.0445422,
    "lng": 13.6782374,
    "url": "https://www.google.com/maps/search/?api=1&query=Podologie%20Felicitas%20Walter%20Dresden"
  },
  {
    "name": "Przemyslaw Stefan Pyzara",
    "city": "Dresden",
    "category": "doctors",
    "nameable": false,
    "entity_type": "person",
    "lat": 51.0329713,
    "lng": 13.7214263,
    "url": "https://www.google.com/maps/search/?api=1&query=Przemyslaw%20Stefan%20Pyzara%20Dresden"
  },
  {
    "name": "Dr. med. Annett Knüppel",
    "city": "Dresden",
    "category": "doctors",
    "nameable": false,
    "entity_type": "person",
    "lat": 51.070886,
    "lng": 13.7506105,
    "url": "https://www.google.com/maps/search/?api=1&query=Dr.%20med.%20Annett%20Kn%C3%BCppel%20Dresden"
  },
  {
    "name": "Gemeinschaftspraxis Klement + Jacobi",
    "city": "Dresden",
    "category": "doctors",
    "nameable": true,
    "entity_type": "business",
    "lat": 51.0636633,
    "lng": 13.750697,
    "url": "https://www.google.com/maps/search/?api=1&query=Gemeinschaftspraxis%20Klement%20%2B%20Jacobi%20Dresden"
  },
  {
    "name": "Polikliniken für Mund-, Kiefer-und Gesichtschirurgie, Kieferorthopädie, Parodontologie, Zahnerhaltung m. Kinderzahnheilkunde, Zahnärztliche Prothetik",
    "city": "Dresden",
    "category": "doctors",
    "nameable": false,
    "entity_type": "person",
    "lat": 51.0562804,
    "lng": 13.7827346,
    "url": "https://www.google.com/maps/search/?api=1&query=Polikliniken%20f%C3%BCr%20Mund-%2C%20Kiefer-und%20Gesichtschirurgie%2C%20Kieferorthop%C3%A4die%2C%20Parodontologie%2C%20Zahnerhaltung%20m.%20Kinderzahnheilkunde%2C%20Zahn%C3%A4rztliche%20Prothetik%20Dresden"
  },
  {
    "name": "HebammenHaus",
    "city": "Dresden",
    "category": "doctors",
    "nameable": true,
    "entity_type": "business",
    "lat": 51.0658644,
    "lng": 13.7564059,
    "url": "https://www.google.com/maps/search/?api=1&query=HebammenHaus%20Dresden"
  },
  {
    "name": "Dr. med. Heiner Methfessel",
    "city": "Dresden",
    "category": "doctors",
    "nameable": false,
    "entity_type": "person",
    "lat": 51.0419581,
    "lng": 13.6923652,
    "url": "https://www.google.com/maps/search/?api=1&query=Dr.%20med.%20Heiner%20Methfessel%20Dresden"
  },
  {
    "name": "Praxis Bauer & Kollegen",
    "city": "Dresden",
    "category": "doctors",
    "nameable": true,
    "entity_type": "business",
    "lat": 51.0468615,
    "lng": 13.7743716,
    "url": "https://www.google.com/maps/search/?api=1&query=Praxis%20Bauer%20%26%20Kollegen%20Dresden"
  },
  {
    "name": "Hals-Nasen-Ohren Arztpraxis Dr. med. Torsten Petzold",
    "city": "Dresden",
    "category": "doctors",
    "nameable": false,
    "entity_type": "person",
    "lat": 51.0626615,
    "lng": 13.7447213,
    "url": "https://www.google.com/maps/search/?api=1&query=Hals-Nasen-Ohren%20Arztpraxis%20Dr.%20med.%20Torsten%20Petzold%20Dresden"
  },
  {
    "name": "Dipl. Med Bärbel Schindler",
    "city": "Dresden",
    "category": "doctors",
    "nameable": false,
    "entity_type": "person",
    "lat": 51.0466197,
    "lng": 13.7246566,
    "url": "https://www.google.com/maps/search/?api=1&query=Dipl.%20Med%20B%C3%A4rbel%20Schindler%20Dresden"
  },
  {
    "name": "Radiologische Gemeinschaftspraxis Dresden-Gorbitz",
    "city": "Dresden",
    "category": "doctors",
    "nameable": true,
    "entity_type": "business",
    "lat": 51.0449804,
    "lng": 13.6783062,
    "url": "https://www.google.com/maps/search/?api=1&query=Radiologische%20Gemeinschaftspraxis%20Dresden-Gorbitz%20Dresden"
  },
  {
    "name": "Praxis Dr. med. Ines Richter-Kuhn",
    "city": "Dresden",
    "category": "doctors",
    "nameable": false,
    "entity_type": "person",
    "lat": 51.0322747,
    "lng": 13.7208159,
    "url": "https://www.google.com/maps/search/?api=1&query=Praxis%20Dr.%20med.%20Ines%20Richter-Kuhn%20Dresden"
  },
  {
    "name": "Kinderarzt Dr. Tittel",
    "city": "Dresden",
    "category": "doctors",
    "nameable": false,
    "entity_type": "person",
    "lat": 51.0423081,
    "lng": 13.6838326,
    "url": "https://www.google.com/maps/search/?api=1&query=Kinderarzt%20Dr.%20Tittel%20Dresden"
  },
  {
    "name": "Praxisgemeinschaft Carola",
    "city": "Dresden",
    "category": "doctors",
    "nameable": false,
    "entity_type": "person",
    "lat": 51.0284795,
    "lng": 13.7586488,
    "url": "https://www.google.com/maps/search/?api=1&query=Praxisgemeinschaft%20Carola%20Dresden"
  },
  {
    "name": "HNO Praxis Friedrichstadt",
    "city": "Dresden",
    "category": "doctors",
    "nameable": true,
    "entity_type": "business",
    "lat": 51.0589605,
    "lng": 13.7204962,
    "url": "https://www.google.com/maps/search/?api=1&query=HNO%20Praxis%20Friedrichstadt%20Dresden"
  },
  {
    "name": "Augenärztin Dr. med. Brigitte Riedel",
    "city": "Dresden",
    "category": "doctors",
    "nameable": false,
    "entity_type": "person",
    "lat": 51.0236596,
    "lng": 13.7427915,
    "url": "https://www.google.com/maps/search/?api=1&query=Augen%C3%A4rztin%20Dr.%20med.%20Brigitte%20Riedel%20Dresden"
  },
  {
    "name": "Gemeinschaftspraxis Markendorf/Paulick",
    "city": "Dresden",
    "category": "doctors",
    "nameable": false,
    "entity_type": "person",
    "lat": 51.0667545,
    "lng": 13.7705212,
    "url": "https://www.google.com/maps/search/?api=1&query=Gemeinschaftspraxis%20Markendorf%2FPaulick%20Dresden"
  },
  {
    "name": "Dr. med. Peter Jebens",
    "city": "Dresden",
    "category": "doctors",
    "nameable": false,
    "entity_type": "person",
    "lat": 51.0667984,
    "lng": 13.7704971,
    "url": "https://www.google.com/maps/search/?api=1&query=Dr.%20med.%20Peter%20Jebens%20Dresden"
  },
  {
    "name": "Dr. med. Conrad Föst",
    "city": "Dresden",
    "category": "doctors",
    "nameable": false,
    "entity_type": "person",
    "lat": 51.0535858,
    "lng": 13.7647587,
    "url": "https://www.google.com/maps/search/?api=1&query=Dr.%20med.%20Conrad%20F%C3%B6st%20Dresden"
  },
  {
    "name": "Dr. med. Anne-Katrin Polanski",
    "city": "Dresden",
    "category": "doctors",
    "nameable": false,
    "entity_type": "person",
    "lat": 51.0504488,
    "lng": 13.7768026,
    "url": "https://www.google.com/maps/search/?api=1&query=Dr.%20med.%20Anne-Katrin%20Polanski%20Dresden"
  },
  {
    "name": "Dr. med Kristina Schmidt",
    "city": "Dresden",
    "category": "doctors",
    "nameable": false,
    "entity_type": "person",
    "lat": 51.0501986,
    "lng": 13.6628584,
    "url": "https://www.google.com/maps/search/?api=1&query=Dr.%20med%20Kristina%20Schmidt%20Dresden"
  },
  {
    "name": "Chirurgen - Dr. Mesech u. Dr. Seipt",
    "city": "Dresden",
    "category": "doctors",
    "nameable": false,
    "entity_type": "person",
    "lat": 51.0499489,
    "lng": 13.6614468,
    "url": "https://www.google.com/maps/search/?api=1&query=Chirurgen%20-%20Dr.%20Mesech%20u.%20Dr.%20Seipt%20Dresden"
  },
  {
    "name": "Eckert",
    "city": "Dresden",
    "category": "doctors",
    "nameable": true,
    "entity_type": "business",
    "lat": 51.0439554,
    "lng": 13.701818,
    "url": "https://www.google.com/maps/search/?api=1&query=Eckert%20Dresden"
  },
  {
    "name": "Dr. Katrin Uhlig",
    "city": "Dresden",
    "category": "doctors",
    "nameable": false,
    "entity_type": "person",
    "lat": 51.0329573,
    "lng": 13.7215536,
    "url": "https://www.google.com/maps/search/?api=1&query=Dr.%20Katrin%20Uhlig%20Dresden"
  },
  {
    "name": "Dr. Claudia Wenke",
    "city": "Dresden",
    "category": "doctors",
    "nameable": false,
    "entity_type": "person",
    "lat": 51.0220724,
    "lng": 13.751959,
    "url": "https://www.google.com/maps/search/?api=1&query=Dr.%20Claudia%20Wenke%20Dresden"
  },
  {
    "name": "Dr. Cornelia John",
    "city": "Dresden",
    "category": "doctors",
    "nameable": false,
    "entity_type": "person",
    "lat": 51.022018,
    "lng": 13.7519041,
    "url": "https://www.google.com/maps/search/?api=1&query=Dr.%20Cornelia%20John%20Dresden"
  },
  {
    "name": "Dr. med. Ralf Wagner, FA f. Orthopädie",
    "city": "Dresden",
    "category": "doctors",
    "nameable": false,
    "entity_type": "person",
    "lat": 51.0344774,
    "lng": 13.7122495,
    "url": "https://www.google.com/maps/search/?api=1&query=Dr.%20med.%20Ralf%20Wagner%2C%20FA%20f.%20Orthop%C3%A4die%20Dresden"
  },
  {
    "name": "A. Seidel & Dr. med. Pfeiffer",
    "city": "Dresden",
    "category": "doctors",
    "nameable": false,
    "entity_type": "person",
    "lat": 51.032913,
    "lng": 13.7215092,
    "url": "https://www.google.com/maps/search/?api=1&query=A.%20Seidel%20%26%20Dr.%20med.%20Pfeiffer%20Dresden"
  },
  {
    "name": "Dr. med. Katrin Joch",
    "city": "Dresden",
    "category": "doctors",
    "nameable": false,
    "entity_type": "person",
    "lat": 51.0326263,
    "lng": 13.7212276,
    "url": "https://www.google.com/maps/search/?api=1&query=Dr.%20med.%20Katrin%20Joch%20Dresden"
  },
  {
    "name": "Hausarztpraxis in Dresden Stadtmitte",
    "city": "Dresden",
    "category": "doctors",
    "nameable": true,
    "entity_type": "business",
    "lat": 51.0536458,
    "lng": 13.7268603,
    "url": "https://www.google.com/maps/search/?api=1&query=Hausarztpraxis%20in%20Dresden%20Stadtmitte%20Dresden"
  },
  {
    "name": "Kinderärztliche Gemeinschaftspraxis Dipl.-Med. K. Ulbrich / Dr. med. M. Pappisch",
    "city": "Dresden",
    "category": "doctors",
    "nameable": false,
    "entity_type": "person",
    "lat": 51.0524,
    "lng": 13.8061946,
    "url": "https://www.google.com/maps/search/?api=1&query=Kinder%C3%A4rztliche%20Gemeinschaftspraxis%20Dipl.-Med.%20K.%20Ulbrich%20%2F%20Dr.%20med.%20M.%20Pappisch%20Dresden"
  },
  {
    "name": "moksha",
    "city": "Dresden",
    "category": "doctors",
    "nameable": true,
    "entity_type": "business",
    "lat": 51.0573072,
    "lng": 13.7686359,
    "url": "https://www.google.com/maps/search/?api=1&query=moksha%20Dresden"
  },
  {
    "name": "Dr. med. Miriam Körner",
    "city": "Dresden",
    "category": "doctors",
    "nameable": false,
    "entity_type": "person",
    "lat": 51.0572787,
    "lng": 13.7686587,
    "url": "https://www.google.com/maps/search/?api=1&query=Dr.%20med.%20Miriam%20K%C3%B6rner%20Dresden"
  },
  {
    "name": "Dr. med. Stephan Lippmann",
    "city": "Dresden",
    "category": "doctors",
    "nameable": false,
    "entity_type": "person",
    "lat": 51.0573418,
    "lng": 13.768605,
    "url": "https://www.google.com/maps/search/?api=1&query=Dr.%20med.%20Stephan%20Lippmann%20Dresden"
  },
  {
    "name": "Villa Gesundbrunnen",
    "city": "Dresden",
    "category": "doctors",
    "nameable": false,
    "entity_type": "person",
    "lat": 51.1188735,
    "lng": 13.7838818,
    "url": "https://www.google.com/maps/search/?api=1&query=Villa%20Gesundbrunnen%20Dresden"
  },
  {
    "name": "Allgemeinarztpraxis Dr. Scholz und Dr. Barz",
    "city": "Dresden",
    "category": "doctors",
    "nameable": false,
    "entity_type": "person",
    "lat": 51.0710319,
    "lng": 13.6970718,
    "url": "https://www.google.com/maps/search/?api=1&query=Allgemeinarztpraxis%20Dr.%20Scholz%20und%20Dr.%20Barz%20Dresden"
  },
  {
    "name": "Dr. Dragana Kovanovic",
    "city": "Dresden",
    "category": "doctors",
    "nameable": false,
    "entity_type": "person",
    "lat": 51.0894194,
    "lng": 13.7047421,
    "url": "https://www.google.com/maps/search/?api=1&query=Dr.%20Dragana%20Kovanovic%20Dresden"
  },
  {
    "name": "Dr. med. Antonio Kantchew-Haustein",
    "city": "Dresden",
    "category": "doctors",
    "nameable": false,
    "entity_type": "person",
    "lat": 51.0295281,
    "lng": 13.7355571,
    "url": "https://www.google.com/maps/search/?api=1&query=Dr.%20med.%20Antonio%20Kantchew-Haustein%20Dresden"
  },
  {
    "name": "Helene Kantchew-Haustein",
    "city": "Dresden",
    "category": "doctors",
    "nameable": false,
    "entity_type": "person",
    "lat": 51.0296244,
    "lng": 13.7355736,
    "url": "https://www.google.com/maps/search/?api=1&query=Helene%20Kantchew-Haustein%20Dresden"
  },
  {
    "name": "Gemeinschaftspraxis, Allgemeine Arztpraxis",
    "city": "Dresden",
    "category": "doctors",
    "nameable": true,
    "entity_type": "business",
    "lat": 51.1160001,
    "lng": 13.7416917,
    "url": "https://www.google.com/maps/search/?api=1&query=Gemeinschaftspraxis%2C%20Allgemeine%20Arztpraxis%20Dresden"
  },
  {
    "name": "Betriebsarzt Deutsche Post",
    "city": "Dresden",
    "category": "doctors",
    "nameable": false,
    "entity_type": "person",
    "lat": 51.0405335,
    "lng": 13.7276878,
    "url": "https://www.google.com/maps/search/?api=1&query=Betriebsarzt%20Deutsche%20Post%20Dresden"
  },
  {
    "name": "Praxis für Logopädie Günther",
    "city": "Dresden",
    "category": "doctors",
    "nameable": false,
    "entity_type": "person",
    "lat": 51.0406502,
    "lng": 13.7274882,
    "url": "https://www.google.com/maps/search/?api=1&query=Praxis%20f%C3%BCr%20Logop%C3%A4die%20G%C3%BCnther%20Dresden"
  },
  {
    "name": "Ronny Zeidler",
    "city": "Dresden",
    "category": "doctors",
    "nameable": false,
    "entity_type": "person",
    "lat": 51.0293469,
    "lng": 13.7073837,
    "url": "https://www.google.com/maps/search/?api=1&query=Ronny%20Zeidler%20Dresden"
  },
  {
    "name": "Gemeinschaftspraxis Dr. med. Tilmann Hacker, Dipl. med. Birgit Lange",
    "city": "Dresden",
    "category": "doctors",
    "nameable": false,
    "entity_type": "person",
    "lat": 51.074787,
    "lng": 13.7499567,
    "url": "https://www.google.com/maps/search/?api=1&query=Gemeinschaftspraxis%20Dr.%20med.%20Tilmann%20Hacker%2C%20Dipl.%20med.%20Birgit%20Lange%20Dresden"
  },
  {
    "name": "Marion Nadolny",
    "city": "Dresden",
    "category": "doctors",
    "nameable": false,
    "entity_type": "person",
    "lat": 51.0708837,
    "lng": 13.7505923,
    "url": "https://www.google.com/maps/search/?api=1&query=Marion%20Nadolny%20Dresden"
  },
  {
    "name": "Frauenarztpraxis Ronald Bensch",
    "city": "Dresden",
    "category": "doctors",
    "nameable": false,
    "entity_type": "person",
    "lat": 51.0400831,
    "lng": 13.8061574,
    "url": "https://www.google.com/maps/search/?api=1&query=Frauenarztpraxis%20Ronald%20Bensch%20Dresden"
  },
  {
    "name": "Gemeinschaftspraxis für Allgemeinmedizin",
    "city": "Dresden",
    "category": "doctors",
    "nameable": true,
    "entity_type": "business",
    "lat": 51.0634391,
    "lng": 13.7594874,
    "url": "https://www.google.com/maps/search/?api=1&query=Gemeinschaftspraxis%20f%C3%BCr%20Allgemeinmedizin%20Dresden"
  },
  {
    "name": "Praxisklinik Herzkreislauf",
    "city": "Dresden",
    "category": "doctors",
    "nameable": false,
    "entity_type": "person",
    "lat": 51.0284029,
    "lng": 13.7586529,
    "url": "https://www.google.com/maps/search/?api=1&query=Praxisklinik%20Herzkreislauf%20Dresden"
  },
  {
    "name": "Dr. med. G. Jatzwauk",
    "city": "Dresden",
    "category": "doctors",
    "nameable": false,
    "entity_type": "person",
    "lat": 51.0508174,
    "lng": 13.8063329,
    "url": "https://www.google.com/maps/search/?api=1&query=Dr.%20med.%20G.%20Jatzwauk%20Dresden"
  },
  {
    "name": "Hausarztpraxis Dr. med. Birgit Mesch - Fachärztin für Innere Medizin",
    "city": "Dresden",
    "category": "doctors",
    "nameable": false,
    "entity_type": "person",
    "lat": 51.0640985,
    "lng": 13.8207084,
    "url": "https://www.google.com/maps/search/?api=1&query=Hausarztpraxis%20Dr.%20med.%20Birgit%20Mesch%20-%20Fach%C3%A4rztin%20f%C3%BCr%20Innere%20Medizin%20Dresden"
  },
  {
    "name": "Onkozentrum Dresden",
    "city": "Dresden",
    "category": "doctors",
    "nameable": true,
    "entity_type": "business",
    "lat": 51.0772704,
    "lng": 13.7176833,
    "url": "https://www.google.com/maps/search/?api=1&query=Onkozentrum%20Dresden%20Dresden"
  },
  {
    "name": "Dr. med. Franz Sandforth",
    "city": "Dresden",
    "category": "doctors",
    "nameable": false,
    "entity_type": "person",
    "lat": 51.0598115,
    "lng": 13.7392704,
    "url": "https://www.google.com/maps/search/?api=1&query=Dr.%20med.%20Franz%20Sandforth%20Dresden"
  },
  {
    "name": "Dipl.-med. Kathrin von der Mühlen",
    "city": "Dresden",
    "category": "doctors",
    "nameable": false,
    "entity_type": "person",
    "lat": 51.0000117,
    "lng": 13.8260683,
    "url": "https://www.google.com/maps/search/?api=1&query=Dipl.-med.%20Kathrin%20von%20der%20M%C3%BChlen%20Dresden"
  },
  {
    "name": "Dr. med V. Herkt",
    "city": "Dresden",
    "category": "doctors",
    "nameable": false,
    "entity_type": "person",
    "lat": 51.0463093,
    "lng": 13.7702016,
    "url": "https://www.google.com/maps/search/?api=1&query=Dr.%20med%20V.%20Herkt%20Dresden"
  },
  {
    "name": "Praxis für Verhaltensmedizin",
    "city": "Dresden",
    "category": "doctors",
    "nameable": true,
    "entity_type": "business",
    "lat": 51.0679342,
    "lng": 13.7482721,
    "url": "https://www.google.com/maps/search/?api=1&query=Praxis%20f%C3%BCr%20Verhaltensmedizin%20Dresden"
  },
  {
    "name": "praxen lautenschläger & brandhoff",
    "city": "Dresden",
    "category": "doctors",
    "nameable": true,
    "entity_type": "business",
    "lat": 51.0679019,
    "lng": 13.7483899,
    "url": "https://www.google.com/maps/search/?api=1&query=praxen%20lautenschl%C3%A4ger%20%26%20brandhoff%20Dresden"
  },
  {
    "name": "Dr. med. Annegret Gahn",
    "city": "Dresden",
    "category": "doctors",
    "nameable": false,
    "entity_type": "person",
    "lat": 51.0324079,
    "lng": 13.7219522,
    "url": "https://www.google.com/maps/search/?api=1&query=Dr.%20med.%20Annegret%20Gahn%20Dresden"
  },
  {
    "name": "Dr. med. Gabriele Beier",
    "city": "Dresden",
    "category": "doctors",
    "nameable": false,
    "entity_type": "person",
    "lat": 51.0543588,
    "lng": 13.8524719,
    "url": "https://www.google.com/maps/search/?api=1&query=Dr.%20med.%20Gabriele%20Beier%20Dresden"
  },
  {
    "name": "Dr. Med. Anke Heunisch",
    "city": "Dresden",
    "category": "doctors",
    "nameable": false,
    "entity_type": "person",
    "lat": 51.0256302,
    "lng": 13.8366514,
    "url": "https://www.google.com/maps/search/?api=1&query=Dr.%20Med.%20Anke%20Heunisch%20Dresden"
  },
  {
    "name": "Dr. med. Thomas Futschik",
    "city": "Dresden",
    "category": "doctors",
    "nameable": false,
    "entity_type": "person",
    "lat": 51.0096459,
    "lng": 13.8273561,
    "url": "https://www.google.com/maps/search/?api=1&query=Dr.%20med.%20Thomas%20Futschik%20Dresden"
  },
  {
    "name": "Facharztpraxis Neurologie Dresden-Klotzsche",
    "city": "Dresden",
    "category": "doctors",
    "nameable": false,
    "entity_type": "person",
    "lat": 51.1210837,
    "lng": 13.783467,
    "url": "https://www.google.com/maps/search/?api=1&query=Facharztpraxis%20Neurologie%20Dresden-Klotzsche%20Dresden"
  },
  {
    "name": "Hausarztpraxis Veit-Peter Veith",
    "city": "Dresden",
    "category": "doctors",
    "nameable": false,
    "entity_type": "person",
    "lat": 51.0501952,
    "lng": 13.6628051,
    "url": "https://www.google.com/maps/search/?api=1&query=Hausarztpraxis%20Veit-Peter%20Veith%20Dresden"
  },
  {
    "name": "HNO Carolin Michaelsen",
    "city": "Dresden",
    "category": "doctors",
    "nameable": false,
    "entity_type": "person",
    "lat": 51.0429577,
    "lng": 13.8067071,
    "url": "https://www.google.com/maps/search/?api=1&query=HNO%20Carolin%20Michaelsen%20Dresden"
  },
  {
    "name": "Dr. Brückner",
    "city": "Dresden",
    "category": "doctors",
    "nameable": false,
    "entity_type": "person",
    "lat": 50.9999167,
    "lng": 13.8262756,
    "url": "https://www.google.com/maps/search/?api=1&query=Dr.%20Br%C3%BCckner%20Dresden"
  },
  {
    "name": "Dr. med. A. Reichel",
    "city": "Dresden",
    "category": "doctors",
    "nameable": false,
    "entity_type": "person",
    "lat": 51.0258117,
    "lng": 13.7616955,
    "url": "https://www.google.com/maps/search/?api=1&query=Dr.%20med.%20A.%20Reichel%20Dresden"
  },
  {
    "name": "Dr. med. U. Reichel",
    "city": "Dresden",
    "category": "doctors",
    "nameable": false,
    "entity_type": "person",
    "lat": 51.0258388,
    "lng": 13.7616742,
    "url": "https://www.google.com/maps/search/?api=1&query=Dr.%20med.%20U.%20Reichel%20Dresden"
  },
  {
    "name": "Hausarztpraxis Dipl.-Med. Tino Viebig",
    "city": "Dresden",
    "category": "doctors",
    "nameable": false,
    "entity_type": "person",
    "lat": 51.0030109,
    "lng": 13.8603282,
    "url": "https://www.google.com/maps/search/?api=1&query=Hausarztpraxis%20Dipl.-Med.%20Tino%20Viebig%20Dresden"
  },
  {
    "name": "Georg Zschornack",
    "city": "Dresden",
    "category": "doctors",
    "nameable": false,
    "entity_type": "person",
    "lat": 51.0279186,
    "lng": 13.7619921,
    "url": "https://www.google.com/maps/search/?api=1&query=Georg%20Zschornack%20Dresden"
  },
  {
    "name": "Dr. Jana Fleischer",
    "city": "Dresden",
    "category": "doctors",
    "nameable": false,
    "entity_type": "person",
    "lat": 51.0279119,
    "lng": 13.7619339,
    "url": "https://www.google.com/maps/search/?api=1&query=Dr.%20Jana%20Fleischer%20Dresden"
  },
  {
    "name": "Dr. Grit Richter-Huhn",
    "city": "Dresden",
    "category": "doctors",
    "nameable": false,
    "entity_type": "person",
    "lat": 51.0281013,
    "lng": 13.7618989,
    "url": "https://www.google.com/maps/search/?api=1&query=Dr.%20Grit%20Richter-Huhn%20Dresden"
  },
  {
    "name": "DiabetologicumDresden",
    "city": "Dresden",
    "category": "doctors",
    "nameable": true,
    "entity_type": "business",
    "lat": 51.0280779,
    "lng": 13.7620557,
    "url": "https://www.google.com/maps/search/?api=1&query=DiabetologicumDresden%20Dresden"
  },