[
  {
    "name": "Marianne Gob",
    "city": "Essen",
    "category": "dentist",
    "nameable": false,
    "entity_type": "person",
    "lat": 51.4188989,
    "lng": 7.0240079,
    "url": "https://www.google.com/maps/search/?api=1&query=Marianne%20Gob%20Essen"
  },
  {
    "name": "Marcel Halbach",
    "city": "Essen",
    "category": "dentist",
    "nameable": false,
    "entity_type": "person",
    "lat": 51.4195947,
    "lng": 7.0242867,
    "url": "https://www.google.com/maps/search/?api=1&query=Marcel%20Halbach%20Essen"
  },
  {
    "name": "Dr. Bergmann",
    "city": "Essen",
    "category": "dentist",
    "nameable": false,
    "entity_type": "person",
    "lat": 51.4497451,
    "lng": 6.9814124,
    "url": "https://www.google.com/maps/search/?api=1&query=Dr.%20Bergmann%20Essen"
  },
  {
    "name": "Grünhagen",
    "city": "Essen",
    "category": "dentist",
    "nameable": true,
    "entity_type": "business",
    "lat": 51.4366624,
    "lng": 6.9895313,
    "url": "https://www.google.com/maps/search/?api=1&query=Gr%C3%BCnhagen%20Essen"
  },
  {
    "name": "Brands",
    "city": "Essen",
    "category": "dentist",
    "nameable": true,
    "entity_type": "business",
    "lat": 51.4478889,
    "lng": 6.9713561,
    "url": "https://www.google.com/maps/search/?api=1&query=Brands%20Essen"
  },
  {
    "name": "Toth",
    "city": "Essen",
    "category": "dentist",
    "nameable": true,
    "entity_type": "business",
    "lat": 51.4481395,
    "lng": 6.9611824,
    "url": "https://www.google.com/maps/search/?api=1&query=Toth%20Essen"
  },
  {
    "name": "Dr. Ralf Gunkel & Collegae",
    "city": "Essen",
    "category": "dentist",
    "nameable": false,
    "entity_type": "person",
    "lat": 51.4961334,
    "lng": 7.00764,
    "url": "https://www.google.com/maps/search/?api=1&query=Dr.%20Ralf%20Gunkel%20%26%20Collegae%20Essen"
  },
  {
    "name": "Dr. Dirk Holfeld und Kollegen, Zahnarztpraxis Margarethenhöhe",
    "city": "Essen",
    "category": "dentist",
    "nameable": false,
    "entity_type": "person",
    "lat": 51.4334561,
    "lng": 6.975805,
    "url": "https://www.google.com/maps/search/?api=1&query=Dr.%20Dirk%20Holfeld%20und%20Kollegen%2C%20Zahnarztpraxis%20Margarethenh%C3%B6he%20Essen"
  },
  {
    "name": "Leona Giepen",
    "city": "Essen",
    "category": "dentist",
    "nameable": false,
    "entity_type": "person",
    "lat": 51.4722688,
    "lng": 6.9502482,
    "url": "https://www.google.com/maps/search/?api=1&query=Leona%20Giepen%20Essen"
  },
  {
    "name": "André Schröder",
    "city": "Essen",
    "category": "dentist",
    "nameable": true,
    "entity_type": "business",
    "lat": 51.4062024,
    "lng": 7.0627829,
    "url": "https://www.google.com/maps/search/?api=1&query=Andr%C3%A9%20Schr%C3%B6der%20Essen"
  },
  {
    "name": "Dr. Herold",
    "city": "Essen",
    "category": "dentist",
    "nameable": false,
    "entity_type": "person",
    "lat": 51.4577555,
    "lng": 7.0069927,
    "url": "https://www.google.com/maps/search/?api=1&query=Dr.%20Herold%20Essen"
  },
  {
    "name": "Dr med. dent. Bernd Sommerfeld",
    "city": "Essen",
    "category": "dentist",
    "nameable": false,
    "entity_type": "person",
    "lat": 51.469932,
    "lng": 6.9476844,
    "url": "https://www.google.com/maps/search/?api=1&query=Dr%20med.%20dent.%20Bernd%20Sommerfeld%20Essen"
  },
  {
    "name": "Zahnarztpraxis Neue Mitte",
    "city": "Essen",
    "category": "dentist",
    "nameable": false,
    "entity_type": "person",
    "lat": 51.4205079,
    "lng": 6.959913,
    "url": "https://www.google.com/maps/search/?api=1&query=Zahnarztpraxis%20Neue%20Mitte%20Essen"
  },
  {
    "name": "Dr. M. Weiss",
    "city": "Essen",
    "category": "dentist",
    "nameable": false,
    "entity_type": "person",
    "lat": 51.4580904,
    "lng": 7.013132,
    "url": "https://www.google.com/maps/search/?api=1&query=Dr.%20M.%20Weiss%20Essen"
  },
  {
    "name": "Dr. Martin Kranewitter",
    "city": "Essen",
    "category": "dentist",
    "nameable": false,
    "entity_type": "person",
    "lat": 51.4465106,
    "lng": 7.1091054,
    "url": "https://www.google.com/maps/search/?api=1&query=Dr.%20Martin%20Kranewitter%20Essen"
  },
  {
    "name": "Yvonne Uhrberg",
    "city": "Essen",
    "category": "dentist",
    "nameable": false,
    "entity_type": "person",
    "lat": 51.4633418,
    "lng": 6.9496383,
    "url": "https://www.google.com/maps/search/?api=1&query=Yvonne%20Uhrberg%20Essen"
  },
  {
    "name": "Darwiche",
    "city": "Essen",
    "category": "dentist",
    "nameable": true,
    "entity_type": "business",
    "lat": 51.4409883,
    "lng": 6.9959619,
    "url": "https://www.google.com/maps/search/?api=1&query=Darwiche%20Essen"
  },
  {
    "name": "M. Sc Nezam Sakr",
    "city": "Essen",
    "category": "dentist",
    "nameable": false,
    "entity_type": "person",
    "lat": 51.462851,
    "lng": 6.9544511,
    "url": "https://www.google.com/maps/search/?api=1&query=M.%20Sc%20Nezam%20Sakr%20Essen"
  },
  {
    "name": "Dr. Thomas Kölker, Dr. Tim Kellersmann, Dr. Katrin Willebrand",
    "city": "Essen",
    "category": "dentist",
    "nameable": false,
    "entity_type": "person",
    "lat": 51.36352,
    "lng": 6.9366643,
    "url": "https://www.google.com/maps/search/?api=1&query=Dr.%20Thomas%20K%C3%B6lker%2C%20Dr.%20Tim%20Kellersmann%2C%20Dr.%20Katrin%20Willebrand%20Essen"
  },
  {
    "name": "Zahnärzte Dr. Poth & Deutschmann",
    "city": "Essen",
    "category": "dentist",
    "nameable": false,
    "entity_type": "person",
    "lat": 51.4403251,
    "lng": 6.9881776,
    "url": "https://www.google.com/maps/search/?api=1&query=Zahn%C3%A4rzte%20Dr.%20Poth%20%26%20Deutschmann%20Essen"
  },
  {
    "name": "Homann, Sandra",
    "city": "Essen",
    "category": "dentist",
    "nameable": false,
    "entity_type": "person",
    "lat": 51.484821,
    "lng": 7.063416,
    "url": "https://www.google.com/maps/search/?api=1&query=Homann%2C%20Sandra%20Essen"
  },
  {
    "name": "Zahnarztpraxis Dr. Lutz Klein und Dr. Claudia Klein",
    "city": "Essen",
    "category": "dentist",
    "nameable": false,
    "entity_type": "person",
    "lat": 51.4338246,
    "lng": 6.9751463,
    "url": "https://www.google.com/maps/search/?api=1&query=Zahnarztpraxis%20Dr.%20Lutz%20Klein%20und%20Dr.%20Claudia%20Klein%20Essen"
  },
  {
    "name": "32fit",
    "city": "Essen",
    "category": "dentist",
    "nameable": true,
    "entity_type": "business",
    "lat": 51.4975183,
    "lng": 7.0082491,
    "url": "https://www.google.com/maps/search/?api=1&query=32fit%20Essen"
  },
  {
    "name": "Dr. Grundmann & Dr. Lang",
    "city": "Essen",
    "category": "dentist",
    "nameable": false,
    "entity_type": "person",
    "lat": 51.4492547,
    "lng": 7.0340279,
    "url": "https://www.google.com/maps/search/?api=1&query=Dr.%20Grundmann%20%26%20Dr.%20Lang%20Essen"
  },
  {
    "name": "Koenigsmann",
    "city": "Essen",
    "category": "dentist",
    "nameable": true,
    "entity_type": "business",
    "lat": 51.4616637,
    "lng": 6.971269,
    "url": "https://www.google.com/maps/search/?api=1&query=Koenigsmann%20Essen"
  },
  {
    "name": "Zahnärzte Poststraße",
    "city": "Essen",
    "category": "dentist",
    "nameable": false,
    "entity_type": "person",
    "lat": 51.3929158,
    "lng": 7.0816385,
    "url": "https://www.google.com/maps/search/?api=1&query=Zahn%C3%A4rzte%20Poststra%C3%9Fe%20Essen"
  },
  {
    "name": "Zahnarztpraxis W. Roskothen",
    "city": "Essen",
    "category": "dentist",
    "nameable": true,
    "entity_type": "business",
    "lat": 51.4719451,
    "lng": 6.9498774,
    "url": "https://www.google.com/maps/search/?api=1&query=Zahnarztpraxis%20W.%20Roskothen%20Essen"
  },
  {
    "name": "Fatori, Dr.med. dent. Dr.",
    "city": "Essen",
    "category": "dentist",
    "nameable": false,
    "entity_type": "person",
    "lat": 51.4411559,
    "lng": 7.0120001,
    "url": "https://www.google.com/maps/search/?api=1&query=Fatori%2C%20Dr.med.%20dent.%20Dr.%20Essen"
  },
  {
    "name": "Dr. Herold u. Kollegen",
    "city": "Essen",
    "category": "dentist",
    "nameable": false,
    "entity_type": "person",
    "lat": 51.458199,
    "lng": 7.0072253,
    "url": "https://www.google.com/maps/search/?api=1&query=Dr.%20Herold%20u.%20Kollegen%20Essen"
  },
  {
    "name": "Dr. Arthur Schwarz",
    "city": "Essen",
    "category": "dentist",
    "nameable": false,
    "entity_type": "person",
    "lat": 51.4394165,
    "lng": 7.0127711,
    "url": "https://www.google.com/maps/search/?api=1&query=Dr.%20Arthur%20Schwarz%20Essen"
  },
  {
    "name": "Dr. med. dent. T. Heimeier",
    "city": "Essen",
    "category": "dentist",
    "nameable": false,
    "entity_type": "person",
    "lat": 51.4413315,
    "lng": 7.0102258,
    "url": "https://www.google.com/maps/search/?api=1&query=Dr.%20med.%20dent.%20T.%20Heimeier%20Essen"
  },
  {
    "name": "Gemeinschaftspraxis Dr. Björn Flöter u. Teja-Alexandra Will",
    "city": "Essen",
    "category": "dentist",
    "nameable": false,
    "entity_type": "person",
    "lat": 51.439721,
    "lng": 7.0062785,
    "url": "https://www.google.com/maps/search/?api=1&query=Gemeinschaftspraxis%20Dr.%20Bj%C3%B6rn%20Fl%C3%B6ter%20u.%20Teja-Alexandra%20Will%20Essen"
  },
  {
    "name": "Khaled Hashem",
    "city": "Essen",
    "category": "dentist",
    "nameable": false,
    "entity_type": "person",
    "lat": 51.4382837,
    "lng": 7.005867,
    "url": "https://www.google.com/maps/search/?api=1&query=Khaled%20Hashem%20Essen"
  },
  {
    "name": "Jürgen Hassel",
    "city": "Essen",
    "category": "dentist",
    "nameable": false,
    "entity_type": "person",
    "lat": 51.4381045,
    "lng": 7.0061072,
    "url": "https://www.google.com/maps/search/?api=1&query=J%C3%BCrgen%20Hassel%20Essen"
  },
  {
    "name": "Martin Sutmann",
    "city": "Essen",
    "category": "dentist",
    "nameable": false,
    "entity_type": "person",
    "lat": 51.4386258,
    "lng": 7.0085433,
    "url": "https://www.google.com/maps/search/?api=1&query=Martin%20Sutmann%20Essen"
  },
  {
    "name": "Zahnärzte am Stern",
    "city": "Essen",
    "category": "dentist",
    "nameable": true,
    "entity_type": "business",
    "lat": 51.4376498,
    "lng": 7.0065103,
    "url": "https://www.google.com/maps/search/?api=1&query=Zahn%C3%A4rzte%20am%20Stern%20Essen"
  },
  {
    "name": "Gemeinschaftspraxis Fischer",
    "city": "Essen",
    "category": "dentist",
    "nameable": true,
    "entity_type": "business",
    "lat": 51.404505,
    "lng": 7.0634636,
    "url": "https://www.google.com/maps/search/?api=1&query=Gemeinschaftspraxis%20Fischer%20Essen"
  },
  {
    "name": "Dr. Frank & Rosenfeldt",
    "city": "Essen",
    "category": "dentist",
    "nameable": false,
    "entity_type": "person",
    "lat": 51.4038401,
    "lng": 7.0661611,
    "url": "https://www.google.com/maps/search/?api=1&query=Dr.%20Frank%20%26%20Rosenfeldt%20Essen"
  },
  {
    "name": "Dr. Milena Katzorke",
    "city": "Essen",
    "category": "dentist",
    "nameable": false,
    "entity_type": "person",
    "lat": 51.4537604,
    "lng": 7.0139139,
    "url": "https://www.google.com/maps/search/?api=1&query=Dr.%20Milena%20Katzorke%20Essen"
  },
  {
    "name": "Dr. Michael Theune",
    "city": "Essen",
    "category": "dentist",
    "nameable": false,
    "entity_type": "person",
    "lat": 51.4254241,
    "lng": 6.9762262,
    "url": "https://www.google.com/maps/search/?api=1&query=Dr.%20Michael%20Theune%20Essen"
  },
  {
    "name": "Studemund",
    "city": "Essen",
    "category": "dentist",
    "nameable": true,
    "entity_type": "business",
    "lat": 51.3584737,
    "lng": 6.934148,
    "url": "https://www.google.com/maps/search/?api=1&query=Studemund%20Essen"
  },
  {
    "name": "Mattias Abert",
    "city": "Essen",
    "category": "dentist",
    "nameable": false,
    "entity_type": "person",
    "lat": 51.3606692,
    "lng": 6.9299694,
    "url": "https://www.google.com/maps/search/?api=1&query=Mattias%20Abert%20Essen"
  },
  {
    "name": "Schumacher",
    "city": "Essen",
    "category": "dentist",
    "nameable": true,
    "entity_type": "business",
    "lat": 51.3609626,
    "lng": 6.9472468,
    "url": "https://www.google.com/maps/search/?api=1&query=Schumacher%20Essen"
  },
  {
    "name": "Zahnarztpraxis Werrastraße",
    "city": "Essen",
    "category": "dentist",
    "nameable": false,
    "entity_type": "person",
    "lat": 51.4370453,
    "lng": 7.0329974,
    "url": "https://www.google.com/maps/search/?api=1&query=Zahnarztpraxis%20Werrastra%C3%9Fe%20Essen"
  },
  {
    "name": "Zahnarzt Cevat Tosyali",
    "city": "Essen",
    "category": "dentist",
    "nameable": false,
    "entity_type": "person",
    "lat": 51.4610358,
    "lng": 6.9801147,
    "url": "https://www.google.com/maps/search/?api=1&query=Zahnarzt%20Cevat%20Tosyali%20Essen"
  },
  {
    "name": "Zahnärzte am Rathaus",
    "city": "Essen",
    "category": "dentist",
    "nameable": true,
    "entity_type": "business",
    "lat": 51.3636907,
    "lng": 6.9393929,
    "url": "https://www.google.com/maps/search/?api=1&query=Zahn%C3%A4rzte%20am%20Rathaus%20Essen"
  },
  {
    "name": "Familienzahnarzt Kettwig",
    "city": "Essen",
    "category": "dentist",
    "nameable": false,
    "entity_type": "person",
    "lat": 51.3641791,
    "lng": 6.9377928,
    "url": "https://www.google.com/maps/search/?api=1&query=Familienzahnarzt%20Kettwig%20Essen"
  },
  {
    "name": "Dr. med. dent. André Kruse",
    "city": "Essen",
    "category": "dentist",
    "nameable": false,
    "entity_type": "person",
    "lat": 51.4404331,
    "lng": 7.0214224,
    "url": "https://www.google.com/maps/search/?api=1&query=Dr.%20med.%20dent.%20Andr%C3%A9%20Kruse%20Essen"
  },
  {
    "name": "Weststadt.Praxis",
    "city": "Essen",
    "category": "dentist",
    "nameable": true,
    "entity_type": "business",
    "lat": 51.4586462,
    "lng": 7.00066,
    "url": "https://www.google.com/maps/search/?api=1&query=Weststadt.Praxis%20Essen"
  },
  {
    "name": "MKG",
    "city": "Essen",
    "category": "dentist",
    "nameable": true,
    "entity_type": "business",
    "lat": 51.3617198,
    "lng": 6.9449311,
    "url": "https://www.google.com/maps/search/?api=1&query=MKG%20Essen"
  },
  {
    "name": "Riepert Zahntechnisches Labor",
    "city": "Essen",
    "category": "dentist",
    "nameable": false,
    "entity_type": "person",
    "lat": 51.3853017,
    "lng": 7.0255126,
    "url": "https://www.google.com/maps/search/?api=1&query=Riepert%20Zahntechnisches%20Labor%20Essen"
  },
  {
    "name": "Doktor Grotkamp",
    "city": "Essen",
    "category": "dentist",
    "nameable": false,
    "entity_type": "person",
    "lat": 51.3849239,
    "lng": 7.0262309,
    "url": "https://www.google.com/maps/search/?api=1&query=Doktor%20Grotkamp%20Essen"
  },
  {
    "name": "Zahnarzt Dr. M. Grosse-Büning",
    "city": "Essen",
    "category": "dentist",
    "nameable": false,
    "entity_type": "person",
    "lat": 51.4258295,
    "lng": 7.0425567,
    "url": "https://www.google.com/maps/search/?api=1&query=Zahnarzt%20Dr.%20M.%20Grosse-B%C3%BCning%20Essen"
  },
  {
    "name": "Angela Heymel\nZahnärztin",
    "city": "Essen",
    "category": "dentist",
    "nameable": false,
    "entity_type": "person",
    "lat": 51.3887167,
    "lng": 7.000766,
    "url": "https://www.google.com/maps/search/?api=1&query=Angela%20Heymel%0AZahn%C3%A4rztin%20Essen"
  },
  {
    "name": "Martin Klar",
    "city": "Essen",
    "category": "dentist",
    "nameable": false,
    "entity_type": "person",
    "lat": 51.3910811,
    "lng": 7.0822026,
    "url": "https://www.google.com/maps/search/?api=1&query=Martin%20Klar%20Essen"
  },
  {
    "name": "Peggy Reker Zahnarztpraxis",
    "city": "Essen",
    "category": "dentist",
    "nameable": false,
    "entity_type": "person",
    "lat": 51.3881801,
    "lng": 7.0026156,
    "url": "https://www.google.com/maps/search/?api=1&query=Peggy%20Reker%20Zahnarztpraxis%20Essen"
  },
  {
    "name": "Zahnarztpraxis Dyckhoff",
    "city": "Essen",
    "category": "dentist",
    "nameable": false,
    "entity_type": "person",
    "lat": 51.4513125,
    "lng": 6.9753085,
    "url": "https://www.google.com/maps/search/?api=1&query=Zahnarztpraxis%20Dyckhoff%20Essen"
  },
  {
    "name": "Pelka",
    "city": "Essen",
    "category": "dentist",
    "nameable": true,
    "entity_type": "business",
    "lat": 51.4463504,
    "lng": 6.9759043,
    "url": "https://www.google.com/maps/search/?api=1&query=Pelka%20Essen"
  },
  {
    "name": "Zahnarzt Essen - Zahnarztpraxis an der Philharmonie",
    "city": "Essen",
    "category": "dentist",
    "nameable": true,
    "entity_type": "business",
    "lat": 51.4468235,
    "lng": 7.0095303,
    "url": "https://www.google.com/maps/search/?api=1&query=Zahnarzt%20Essen%20-%20Zahnarztpraxis%20an%20der%20Philharmonie%20Essen"
  },
  {
    "name": "Schwagrowski",
    "city": "Essen",
    "category": "dentist",
    "nameable": true,
    "entity_type": "business",
    "lat": 51.416391,
    "lng": 7.1061417,
    "url": "https://www.google.com/maps/search/?api=1&query=Schwagrowski%20Essen"
  },
  {
    "name": "Dr. Nikolaus Askeridis",
    "city": "Essen",
    "category": "dentist",
    "nameable": false,
    "entity_type": "person",
    "lat": 51.4495503,
    "lng": 6.9741698,
    "url": "https://www.google.com/maps/search/?api=1&query=Dr.%20Nikolaus%20Askeridis%20Essen"
  },
  {
    "name": "Joachim Manke",
    "city": "Essen",
    "category": "dentist",
    "nameable": false,
    "entity_type": "person",
    "lat": 51.4498479,
    "lng": 6.9756873,
    "url": "https://www.google.com/maps/search/?api=1&query=Joachim%20Manke%20Essen"
  },
  {
    "name": "i-Dent, Zahntechnik",
    "city": "Essen",
    "category": "dentist",
    "nameable": true,
    "entity_type": "business",
    "lat": 51.4920536,
    "lng": 6.9423147,
    "url": "https://www.google.com/maps/search/?api=1&query=i-Dent%2C%20Zahntechnik%20Essen"
  },
  {
    "name": "Galla, Zahnarzt",
    "city": "Essen",
    "category": "dentist",
    "nameable": false,
    "entity_type": "person",
    "lat": 51.4920084,
    "lng": 6.9422749,
    "url": "https://www.google.com/maps/search/?api=1&query=Galla%2C%20Zahnarzt%20Essen"
  },
  {
    "name": "City Zahnarztpraxis",
    "city": "Essen",
    "category": "dentist",
    "nameable": true,
    "entity_type": "business",
    "lat": 51.453986,
    "lng": 7.0130515,
    "url": "https://www.google.com/maps/search/?api=1&query=City%20Zahnarztpraxis%20Essen"
  },
  {
    "name": "ZOP Dr. Passin & Dr. Becker - Parodontologie Oralchirurgie Implantologie",
    "city": "Essen",
    "category": "dentist",
    "nameable": false,
    "entity_type": "person",
    "lat": 51.425906,
    "lng": 7.0438411,
    "url": "https://www.google.com/maps/search/?api=1&query=ZOP%20Dr.%20Passin%20%26%20Dr.%20Becker%20-%20Parodontologie%20Oralchirurgie%20Implantologie%20Essen"
  },
  {
    "name": "Zahnärzte Überruhr",
    "city": "Essen",
    "category": "dentist",
    "nameable": false,
    "entity_type": "person",
    "lat": 51.4277145,
    "lng": 7.0748356,
    "url": "https://www.google.com/maps/search/?api=1&query=Zahn%C3%A4rzte%20%C3%9Cberruhr%20Essen"
  },
  {
    "name": "Dr. med. dent. Detlef Schulz",
    "city": "Essen",
    "category": "dentist",
    "nameable": false,
    "entity_type": "person",
    "lat": 51.4353181,
    "lng": 7.0424792,
    "url": "https://www.google.com/maps/search/?api=1&query=Dr.%20med.%20dent.%20Detlef%20Schulz%20Essen"
  },
  {
    "name": "Dr. Sünkler Zahnarzt",
    "city": "Essen",
    "category": "dentist",
    "nameable": false,
    "entity_type": "person",
    "lat": 51.3622569,
    "lng": 6.9413569,
    "url": "https://www.google.com/maps/search/?api=1&query=Dr.%20S%C3%BCnkler%20Zahnarzt%20Essen"
  },
  {
    "name": "Dr. Jan Woeckner",
    "city": "Essen",
    "category": "dentist",
    "nameable": false,
    "entity_type": "person",
    "lat": 51.4364073,
    "lng": 6.9940985,
    "url": "https://www.google.com/maps/search/?api=1&query=Dr.%20Jan%20Woeckner%20Essen"
  },
  {
    "name": "Hufeland-Praxis Dr. Chrisoph Imcke",
    "city": "Essen",
    "category": "dentist",
    "nameable": false,
    "entity_type": "person",
    "lat": 51.4364759,
    "lng": 6.9955393,
    "url": "https://www.google.com/maps/search/?api=1&query=Hufeland-Praxis%20Dr.%20Chrisoph%20Imcke%20Essen"
  },
  {
    "name": "Dr. T. Michel",
    "city": "Essen",
    "category": "dentist",
    "nameable": false,
    "entity_type": "person",
    "lat": 51.4464608,
    "lng": 7.0757884,
    "url": "https://www.google.com/maps/search/?api=1&query=Dr.%20T.%20Michel%20Essen"
  },
  {
    "name": "Dr. Frank & Rosenfeld",
    "city": "Essen",
    "category": "dentist",
    "nameable": false,
    "entity_type": "person",
    "lat": 51.4038155,
    "lng": 7.0659898,
    "url": "https://www.google.com/maps/search/?api=1&query=Dr.%20Frank%20%26%20Rosenfeld%20Essen"
  },
  {
    "name": "Dr. Brigitte E. Puppe",
    "city": "Essen",
    "category": "dentist",
    "nameable": false,
    "entity_type": "person",
    "lat": 51.4025487,
    "lng": 7.0682227,
    "url": "https://www.google.com/maps/search/?api=1&query=Dr.%20Brigitte%20E.%20Puppe%20Essen"
  },
  {
    "name": "Dr. Zadeh",
    "city": "Essen",
    "category": "dentist",
    "nameable": false,
    "entity_type": "person",
    "lat": 51.4486407,
    "lng": 7.0361935,
    "url": "https://www.google.com/maps/search/?api=1&query=Dr.%20Zadeh%20Essen"
  },
  {
    "name": "Dr. Schmid und Kollegen",
    "city": "Essen",
    "category": "dentist",
    "nameable": false,
    "entity_type": "person",
    "lat": 51.4122256,
    "lng": 6.99155,
    "url": "https://www.google.com/maps/search/?api=1&query=Dr.%20Schmid%20und%20Kollegen%20Essen"
  },
  {
    "name": "Zahnarzt Dr. Gerhaupt",
    "city": "Essen",
    "category": "dentist",
    "nameable": false,
    "entity_type": "person",
    "lat": 51.4006137,
    "lng": 7.0656188,
    "url": "https://www.google.com/maps/search/?api=1&query=Zahnarzt%20Dr.%20Gerhaupt%20Essen"
  },
  {
    "name": "Gerlach",
    "city": "Essen",
    "category": "dentist",
    "nameable": true,
    "entity_type": "business",
    "lat": 51.4089198,
    "lng": 6.9940558,
    "url": "https://www.google.com/maps/search/?api=1&query=Gerlach%20Essen"
  },
  {
    "name": "Jörg Bovens",
    "city": "Essen",
    "category": "dentist",
    "nameable": false,
    "entity_type": "person",
    "lat": 51.4817469,
    "lng": 6.9487017,
    "url": "https://www.google.com/maps/search/?api=1&query=J%C3%B6rg%20Bovens%20Essen"
  },
  {
    "name": "Dr. med. dent. Jörg Müller Dr. med. dent. Sebastian Müller Dr. med. dent. Frank Lüning",
    "city": "Essen",
    "category": "dentist",
    "nameable": false,
    "entity_type": "person",
    "lat": 51.3850068,
    "lng": 7.0252136,
    "url": "https://www.google.com/maps/search/?api=1&query=Dr.%20med.%20dent.%20J%C3%B6rg%20M%C3%BCller%20Dr.%20med.%20dent.%20Sebastian%20M%C3%BCller%20Dr.%20med.%20dent.%20Frank%20L%C3%BCning%20Essen"
  },
  {
    "name": "Praxis Dr. Nora Makki & Kollegen",
    "city": "Essen",
    "category": "dentist",
    "nameable": false,
    "entity_type": "person",
    "lat": 51.4745691,
    "lng": 6.9515524,
    "url": "https://www.google.com/maps/search/?api=1&query=Praxis%20Dr.%20Nora%20Makki%20%26%20Kollegen%20Essen"
  },
  {
    "name": "Kieferorthopädische Praxis Essen Dr. Melanie Marzi und Dr. Jari Marzi",
    "city": "Essen",
    "category": "dentist",
    "nameable": false,
    "entity_type": "person",
    "lat": 51.3873859,
    "lng": 7.0031056,
    "url": "https://www.google.com/maps/search/?api=1&query=Kieferorthop%C3%A4dische%20Praxis%20Essen%20Dr.%20Melanie%20Marzi%20und%20Dr.%20Jari%20Marzi%20Essen"
  },
  {
    "name": "AllDent - Zahnzentrum",
    "city": "Essen",
    "category": "dentist",
    "nameable": true,
    "entity_type": "business",
    "lat": 51.4525728,
    "lng": 7.0122921,
    "url": "https://www.google.com/maps/search/?api=1&query=AllDent%20-%20Zahnzentrum%20Essen"
  },
  {
    "name": "Wolfgang Seher",
    "city": "Essen",
    "category": "dentist",
    "nameable": false,
    "entity_type": "person",
    "lat": 51.4638775,
    "lng": 6.9490837,
    "url": "https://www.google.com/maps/search/?api=1&query=Wolfgang%20Seher%20Essen"
  },
  {
    "name": "Dr. Judith Franke",
    "city": "Essen",
    "category": "dentist",
    "nameable": false,
    "entity_type": "person",
    "lat": 51.4414727,
    "lng": 6.9973725,
    "url": "https://www.google.com/maps/search/?api=1&query=Dr.%20Judith%20Franke%20Essen"
  },
  {
    "name": "Stadtwaldpraxis Curic Heimeier",
    "city": "Essen",
    "category": "dentist",
    "nameable": false,
    "entity_type": "person",
    "lat": 51.4225485,
    "lng": 7.0282554,
    "url": "https://www.google.com/maps/search/?api=1&query=Stadtwaldpraxis%20Curic%20Heimeier%20Essen"
  },
  {
    "name": "Frank Servaty",
    "city": "Essen",
    "category": "dentist",
    "nameable": false,
    "entity_type": "person",
    "lat": 51.4742631,
    "lng": 6.9570433,
    "url": "https://www.google.com/maps/search/?api=1&query=Frank%20Servaty%20Essen"
  },
  {
    "name": "Hartmann, Zahnarzt",
    "city": "Essen",
    "category": "dentist",
    "nameable": false,
    "entity_type": "person",
    "lat": 51.4578368,
    "lng": 7.0130767,
    "url": "https://www.google.com/maps/search/?api=1&query=Hartmann%2C%20Zahnarzt%20Essen"
  },
  {
    "name": "Zahn und Zähnchen",
    "city": "Essen",
    "category": "dentist",
    "nameable": true,
    "entity_type": "business",
    "lat": 51.4033073,
    "lng": 7.0685026,
    "url": "https://www.google.com/maps/search/?api=1&query=Zahn%20und%20Z%C3%A4hnchen%20Essen"
  },
  {
    "name": "Zahnarztpraxis Dr. Jörg Grimmeisen",
    "city": "Essen",
    "category": "dentist",
    "nameable": false,
    "entity_type": "person",
    "lat": 51.4502081,
    "lng": 7.0282171,
    "url": "https://www.google.com/maps/search/?api=1&query=Zahnarztpraxis%20Dr.%20J%C3%B6rg%20Grimmeisen%20Essen"
  },
  {
    "name": "Dr. med. dent. Christian Dieckmann",
    "city": "Essen",
    "category": "dentist",
    "nameable": false,
    "entity_type": "person",
    "lat": 51.4671076,
    "lng": 7.0806801,
    "url": "https://www.google.com/maps/search/?api=1&query=Dr.%20med.%20dent.%20Christian%20Dieckmann%20Essen"
  },
  {
    "name": "Zahnarztpraxis Norma Hanisch",
    "city": "Essen",
    "category": "dentist",
    "nameable": false,
    "entity_type": "person",
    "lat": 51.3786781,
    "lng": 7.0153561,
    "url": "https://www.google.com/maps/search/?api=1&query=Zahnarztpraxis%20Norma%20Hanisch%20Essen"
  },
  {
    "name": "Dr.med.dent. Seher",
    "city": "Essen",
    "category": "dentist",
    "nameable": false,
    "entity_type": "person",
    "lat": 51.4807199,
    "lng": 6.9568261,
    "url": "https://www.google.com/maps/search/?api=1&query=Dr.med.dent.%20Seher%20Essen"
  },
  {
    "name": "Dr. Hornung",
    "city": "Essen",
    "category": "dentist",
    "nameable": false,
    "entity_type": "person",
    "lat": 51.4404823,
    "lng": 7.027872,
    "url": "https://www.google.com/maps/search/?api=1&query=Dr.%20Hornung%20Essen"
  },
  {
    "name": "Schumann",
    "city": "Essen",
    "category": "dentist",
    "nameable": true,
    "entity_type": "business",
    "lat": 51.3657504,
    "lng": 6.9393854,
    "url": "https://www.google.com/maps/search/?api=1&query=Schumann%20Essen"
  },
  {
    "name": "Zahnarztpraxis Dellwig",
    "city": "Essen",
    "category": "dentist",
    "nameable": false,
    "entity_type": "person",
    "lat": 51.487869,
    "lng": 6.9315575,
    "url": "https://www.google.com/maps/search/?api=1&query=Zahnarztpraxis%20Dellwig%20Essen"
  },
  {
    "name": "Dr. med. Gerhard Schmitz",
    "city": "Essen",
    "category": "doctors",
    "nameable": false,
    "entity_type": "person",
    "lat": 51.419516,
    "lng": 7.0242855,
    "url": "https://www.google.com/maps/search/?api=1&query=Dr.%20med.%20Gerhard%20Schmitz%20Essen"
  },
  {
    "name": "Hans Ulrich Glaß",
    "city": "Essen",
    "category": "doctors",
    "nameable": false,
    "entity_type": "person",
    "lat": 51.4204136,
    "lng": 7.0246601,
    "url": "https://www.google.com/maps/search/?api=1&query=Hans%20Ulrich%20Gla%C3%9F%20Essen"
  },
  {
    "name": "Dipl.-Psych. Monica Muckel",
    "city": "Essen",
    "category": "doctors",
    "nameable": false,
    "entity_type": "person",
    "lat": 51.4205523,
    "lng": 7.0248524,
    "url": "https://www.google.com/maps/search/?api=1&query=Dipl.-Psych.%20Monica%20Muckel%20Essen"
  },
  {
    "name": "Dipl.-Psych. Niels Arens",
    "city": "Essen",
    "category": "doctors",
    "nameable": false,
    "entity_type": "person",
    "lat": 51.4205406,
    "lng": 7.0248225,
    "url": "https://www.google.com/maps/search/?api=1&query=Dipl.-Psych.%20Niels%20Arens%20Essen"
  },
  {
    "name": "Dr. med. Christian Perret",
    "city": "Essen",
    "category": "doctors",
    "nameable": false,
    "entity_type": "person",
    "lat": 51.4210764,
    "lng": 7.025763,
    "url": "https://www.google.com/maps/search/?api=1&query=Dr.%20med.%20Christian%20Perret%20Essen"
  },
  {
    "name": "Dr. med. Juliane Niesert",
    "city": "Essen",
    "category": "doctors",
    "nameable": false,
    "entity_type": "person",
    "lat": 51.4210849,
    "lng": 7.0257513,
    "url": "https://www.google.com/maps/search/?api=1&query=Dr.%20med.%20Juliane%20Niesert%20Essen"
  },
  {
    "name": "Gerhard Behl",
    "city": "Essen",
    "category": "doctors",
    "nameable": false,
    "entity_type": "person",
    "lat": 51.421091,
    "lng": 7.0257357,
    "url": "https://www.google.com/maps/search/?api=1&query=Gerhard%20Behl%20Essen"
  },
  {
    "name": "Rudolf Kimmel",
    "city": "Essen",
    "category": "doctors",
    "nameable": false,
    "entity_type": "person",
    "lat": 51.4210971,
    "lng": 7.0257182,
    "url": "https://www.google.com/maps/search/?api=1&query=Rudolf%20Kimmel%20Essen"
  },
  {
    "name": "Ihre Praxis Holsterhausen",
    "city": "Essen",
    "category": "doctors",
    "nameable": true,
    "entity_type": "business",
    "lat": 51.4421794,
    "lng": 6.9979106,
    "url": "https://www.google.com/maps/search/?api=1&query=Ihre%20Praxis%20Holsterhausen%20Essen"
  },
  {
    "name": "Dr. med. Michael, Elke Knöchelmann",
    "city": "Essen",
    "category": "doctors",
    "nameable": false,
    "entity_type": "person",
    "lat": 51.4593164,
    "lng": 6.9793532,
    "url": "https://www.google.com/maps/search/?api=1&query=Dr.%20med.%20Michael%2C%20Elke%20Kn%C3%B6chelmann%20Essen"
  },
  {
    "name": "Dr. Schlebusch",
    "city": "Essen",
    "category": "doctors",
    "nameable": false,
    "entity_type": "person",
    "lat": 51.4364565,
    "lng": 6.9910377,
    "url": "https://www.google.com/maps/search/?api=1&query=Dr.%20Schlebusch%20Essen"
  },
  {
    "name": "Hautarztpraxis Holsterhausen",
    "city": "Essen",
    "category": "doctors",
    "nameable": false,
    "entity_type": "person",
    "lat": 51.436423,
    "lng": 6.9911758,
    "url": "https://www.google.com/maps/search/?api=1&query=Hautarztpraxis%20Holsterhausen%20Essen"
  },
  {
    "name": "Hausarztzentrum Germaniaplatz",
    "city": "Essen",
    "category": "doctors",
    "nameable": false,
    "entity_type": "person",
    "lat": 51.4745598,
    "lng": 6.9515067,
    "url": "https://www.google.com/maps/search/?api=1&query=Hausarztzentrum%20Germaniaplatz%20Essen"
  },
  {
    "name": "Dr. Bernd Rohe",
    "city": "Essen",
    "category": "doctors",
    "nameable": false,
    "entity_type": "person",
    "lat": 51.4366553,
    "lng": 6.9894649,
    "url": "https://www.google.com/maps/search/?api=1&query=Dr.%20Bernd%20Rohe%20Essen"
  },
  {
    "name": "Augenärztliche Gemeinschaftspraxis Dr. Storms & Partner",
    "city": "Essen",
    "category": "doctors",
    "nameable": false,
    "entity_type": "person",
    "lat": 51.4489553,
    "lng": 6.9724391,
    "url": "https://www.google.com/maps/search/?api=1&query=Augen%C3%A4rztliche%20Gemeinschaftspraxis%20Dr.%20Storms%20%26%20Partner%20Essen"
  },
  {
    "name": "Gemeinschaftspraxis C. Möhlmann / H. Beer",
    "city": "Essen",
    "category": "doctors",
    "nameable": true,
    "entity_type": "business",
    "lat": 51.4404251,
    "lng": 6.9902092,
    "url": "https://www.google.com/maps/search/?api=1&query=Gemeinschaftspraxis%20C.%20M%C3%B6hlmann%20%2F%20H.%20Beer%20Essen"
  },
  {
    "name": "Gemeinschaftspraxis für Neurologie und Psychiatrie",
    "city": "Essen",
    "category": "doctors",
    "nameable": true,
    "entity_type": "business",
    "lat": 51.4482377,
    "lng": 6.9555304,
    "url": "https://www.google.com/maps/search/?api=1&query=Gemeinschaftspraxis%20f%C3%BCr%20Neurologie%20und%20Psychiatrie%20Essen"
  },
  {
    "name": "MVZ Gesundheitspunkt",
    "city": "Essen",
    "category": "doctors",
    "nameable": true,
    "entity_type": "business",
    "lat": 51.4536035,
    "lng": 7.0118796,
    "url": "https://www.google.com/maps/search/?api=1&query=MVZ%20Gesundheitspunkt%20Essen"
  },
  {
    "name": "Hausärztliche Gemeinschaftspraxis",
    "city": "Essen",
    "category": "doctors",
    "nameable": true,
    "entity_type": "business",
    "lat": 51.4317857,
    "lng": 6.9765939,
    "url": "https://www.google.com/maps/search/?api=1&query=Haus%C3%A4rztliche%20Gemeinschaftspraxis%20Essen"
  },
  {
    "name": "Fachärztin für Allgemeinmedizin",
    "city": "Essen",
    "category": "doctors",
    "nameable": true,
    "entity_type": "business",
    "lat": 51.432366,
    "lng": 6.9778703,
    "url": "https://www.google.com/maps/search/?api=1&query=Fach%C3%A4rztin%20f%C3%BCr%20Allgemeinmedizin%20Essen"
  },
  {
    "name": "Semsudin Sefovic, Dr. med. (YU)",
    "city": "Essen",
    "category": "doctors",
    "nameable": false,
    "entity_type": "person",
    "lat": 51.4392663,
    "lng": 7.0250349,
    "url": "https://www.google.com/maps/search/?api=1&query=Semsudin%20Sefovic%2C%20Dr.%20med.%20(YU)%20Essen"
  },
  {
    "name": "Care Vision",
    "city": "Essen",
    "category": "doctors",
    "nameable": false,
    "entity_type": "person",
    "lat": 51.4531338,
    "lng": 7.0137266,
    "url": "https://www.google.com/maps/search/?api=1&query=Care%20Vision%20Essen"
  },
  {
    "name": "Dipl. Päd. Heike Dusy",
    "city": "Essen",
    "category": "doctors",
    "nameable": false,
    "entity_type": "person",
    "lat": 51.469874,
    "lng": 6.9475896,
    "url": "https://www.google.com/maps/search/?api=1&query=Dipl.%20P%C3%A4d.%20Heike%20Dusy%20Essen"
  },
  {
    "name": "Dr. D. Bülhoff (HNO)",
    "city": "Essen",
    "category": "doctors",
    "nameable": false,
    "entity_type": "person",
    "lat": 51.4204732,
    "lng": 6.9598436,
    "url": "https://www.google.com/maps/search/?api=1&query=Dr.%20D.%20B%C3%BClhoff%20(HNO)%20Essen"
  },
  {
    "name": "Knochendoc Therapie-Stützpunkt Dr. Marks",
    "city": "Essen",
    "category": "doctors",
    "nameable": false,
    "entity_type": "person",
    "lat": 51.4675299,
    "lng": 7.0805168,
    "url": "https://www.google.com/maps/search/?api=1&query=Knochendoc%20Therapie-St%C3%BCtzpunkt%20Dr.%20Marks%20Essen"
  },
  {
    "name": "Thorsten Behnke",
    "city": "Essen",
    "category": "doctors",
    "nameable": false,
    "entity_type": "person",
    "lat": 51.4203618,
    "lng": 6.9572645,
    "url": "https://www.google.com/maps/search/?api=1&query=Thorsten%20Behnke%20Essen"
  },
  {
    "name": "Gemeinschaftspraxis Burgaltendorf",
    "city": "Essen",
    "category": "doctors",
    "nameable": true,
    "entity_type": "business",
    "lat": 51.4165135,
    "lng": 7.1184307,
    "url": "https://www.google.com/maps/search/?api=1&query=Gemeinschaftspraxis%20Burgaltendorf%20Essen"
  },
  {
    "name": "Georg WEtzig",
    "city": "Essen",
    "category": "doctors",
    "nameable": false,
    "entity_type": "person",
    "lat": 51.4827573,
    "lng": 6.9468543,
    "url": "https://www.google.com/maps/search/?api=1&query=Georg%20WEtzig%20Essen"
  },
  {
    "name": "Podologie in Steele",
    "city": "Essen",
    "category": "doctors",
    "nameable": true,
    "entity_type": "business",
    "lat": 51.4476272,
    "lng": 7.0750044,
    "url": "https://www.google.com/maps/search/?api=1&query=Podologie%20in%20Steele%20Essen"
  },
  {
    "name": "Hausarztpraxis Holsterhausen",
    "city": "Essen",
    "category": "doctors",
    "nameable": false,
    "entity_type": "person",
    "lat": 51.4427768,
    "lng": 6.9816102,
    "url": "https://www.google.com/maps/search/?api=1&query=Hausarztpraxis%20Holsterhausen%20Essen"
  },
  {
    "name": "Daniela Augst",
    "city": "Essen",
    "category": "doctors",
    "nameable": false,
    "entity_type": "person",
    "lat": 51.449255,
    "lng": 7.0345856,
    "url": "https://www.google.com/maps/search/?api=1&query=Daniela%20Augst%20Essen"
  },
  {
    "name": "Hausärztepraxis",
    "city": "Essen",
    "category": "doctors",
    "nameable": true,
    "entity_type": "business",
    "lat": 51.4490644,
    "lng": 7.0350791,
    "url": "https://www.google.com/maps/search/?api=1&query=Haus%C3%A4rztepraxis%20Essen"
  },
  {
    "name": "Dr. med. Norbert Rang",
    "city": "Essen",
    "category": "doctors",
    "nameable": false,
    "entity_type": "person",
    "lat": 51.4351447,
    "lng": 7.0050706,
    "url": "https://www.google.com/maps/search/?api=1&query=Dr.%20med.%20Norbert%20Rang%20Essen"
  },
  {
    "name": "Ruhrradiologie Essen - Rü 191",
    "city": "Essen",
    "category": "doctors",
    "nameable": true,
    "entity_type": "business",
    "lat": 51.4318946,
    "lng": 7.0040887,
    "url": "https://www.google.com/maps/search/?api=1&query=Ruhrradiologie%20Essen%20-%20R%C3%BC%20191%20Essen"
  },
  {
    "name": "Ruhrradiologie",
    "city": "Essen",
    "category": "doctors",
    "nameable": true,
    "entity_type": "business",
    "lat": 51.4318046,
    "lng": 7.0040591,
    "url": "https://www.google.com/maps/search/?api=1&query=Ruhrradiologie%20Essen"
  },
  {
    "name": "Ärztehaus",
    "city": "Essen",
    "category": "doctors",
    "nameable": true,
    "entity_type": "business",
    "lat": 51.4317001,
    "lng": 7.0049257,
    "url": "https://www.google.com/maps/search/?api=1&query=%C3%84rztehaus%20Essen"
  },
  {
    "name": "Gemeinschaftspraxis für Nieren- und Hochdruckkrankheiten Essen - Steele",
    "city": "Essen",
    "category": "doctors",
    "nameable": true,
    "entity_type": "business",
    "lat": 51.4481758,
    "lng": 7.0789021,
    "url": "https://www.google.com/maps/search/?api=1&query=Gemeinschaftspraxis%20f%C3%BCr%20Nieren-%20und%20Hochdruckkrankheiten%20Essen%20-%20Steele%20Essen"
  },
  {
    "name": "Dr. Flenker",
    "city": "Essen",
    "category": "doctors",
    "nameable": false,
    "entity_type": "person",
    "lat": 51.3641726,
    "lng": 6.9421047,
    "url": "https://www.google.com/maps/search/?api=1&query=Dr.%20Flenker%20Essen"
  },
  {
    "name": "Medizentum Essen Borbeck",
    "city": "Essen",
    "category": "doctors",
    "nameable": true,
    "entity_type": "business",
    "lat": 51.4751234,
    "lng": 6.9508976,
    "url": "https://www.google.com/maps/search/?api=1&query=Medizentum%20Essen%20Borbeck%20Essen"
  },
  {
    "name": "Dr. med. N. Freitag",
    "city": "Essen",
    "category": "doctors",
    "nameable": false,
    "entity_type": "person",
    "lat": 51.4362187,
    "lng": 7.0002184,
    "url": "https://www.google.com/maps/search/?api=1&query=Dr.%20med.%20N.%20Freitag%20Essen"
  },
  {
    "name": "Dr. Martin Elsner",
    "city": "Essen",
    "category": "doctors",
    "nameable": false,
    "entity_type": "person",
    "lat": 51.4565394,
    "lng": 7.0254773,
    "url": "https://www.google.com/maps/search/?api=1&query=Dr.%20Martin%20Elsner%20Essen"
  },
  {
    "name": "Praxis Reil&Team",
    "city": "Essen",
    "category": "doctors",
    "nameable": true,
    "entity_type": "business",
    "lat": 51.4919298,
    "lng": 7.0530284,
    "url": "https://www.google.com/maps/search/?api=1&query=Praxis%20Reil%26Team%20Essen"
  },
  {
    "name": "Trauart - Trau Dich ganz in Deiner Art zu sein",
    "city": "Essen",
    "category": "doctors",
    "nameable": false,
    "entity_type": "person",
    "lat": 51.4449717,
    "lng": 7.0049973,
    "url": "https://www.google.com/maps/search/?api=1&query=Trauart%20-%20Trau%20Dich%20ganz%20in%20Deiner%20Art%20zu%20sein%20Essen"
  },
  {
    "name": "Fachärztehaus",
    "city": "Essen",
    "category": "doctors",
    "nameable": true,
    "entity_type": "business",
    "lat": 51.3912018,
    "lng": 7.0813608,
    "url": "https://www.google.com/maps/search/?api=1&query=Fach%C3%A4rztehaus%20Essen"
  },
  {
    "name": "Augenarzt Dr. med. Karl Rathmer",
    "city": "Essen",
    "category": "doctors",
    "nameable": false,
    "entity_type": "person",
    "lat": 51.3939888,
    "lng": 7.0823515,
    "url": "https://www.google.com/maps/search/?api=1&query=Augenarzt%20Dr.%20med.%20Karl%20Rathmer%20Essen"
  },
  {
    "name": "Facharzt Hamede Fahimi",
    "city": "Essen",
    "category": "doctors",
    "nameable": false,
    "entity_type": "person",
    "lat": 51.3902662,
    "lng": 7.0832034,
    "url": "https://www.google.com/maps/search/?api=1&query=Facharzt%20Hamede%20Fahimi%20Essen"
  },
  {
    "name": "ChirurgieCentrum Essen",
    "city": "Essen",
    "category": "doctors",
    "nameable": true,
    "entity_type": "business",
    "lat": 51.4478089,
    "lng": 7.0787027,
    "url": "https://www.google.com/maps/search/?api=1&query=ChirurgieCentrum%20Essen%20Essen"
  },
  {
    "name": "Praxis am Markt",
    "city": "Essen",
    "category": "doctors",
    "nameable": true,
    "entity_type": "business",
    "lat": 51.4730103,
    "lng": 6.9498213,
    "url": "https://www.google.com/maps/search/?api=1&query=Praxis%20am%20Markt%20Essen"
  },
  {
    "name": "Dr. Alexander Beck / Katja Meier-Doll",
    "city": "Essen",
    "category": "doctors",
    "nameable": false,
    "entity_type": "person",
    "lat": 51.4601771,
    "lng": 7.0181339,
    "url": "https://www.google.com/maps/search/?api=1&query=Dr.%20Alexander%20Beck%20%2F%20Katja%20Meier-Doll%20Essen"
  },
  {
    "name": "Dr. Thomas Ring",
    "city": "Essen",
    "category": "doctors",
    "nameable": false,
    "entity_type": "person",
    "lat": 51.4590318,
    "lng": 7.0129289,
    "url": "https://www.google.com/maps/search/?api=1&query=Dr.%20Thomas%20Ring%20Essen"
  },
  {
    "name": "Hausarztpraxis Steele",
    "city": "Essen",
    "category": "doctors",
    "nameable": false,
    "entity_type": "person",
    "lat": 51.4485596,
    "lng": 7.0773875,
    "url": "https://www.google.com/maps/search/?api=1&query=Hausarztpraxis%20Steele%20Essen"
  },
  {
    "name": "Dr. med. Heribert König",
    "city": "Essen",
    "category": "doctors",
    "nameable": false,
    "entity_type": "person",
    "lat": 51.4034578,
    "lng": 7.0666681,
    "url": "https://www.google.com/maps/search/?api=1&query=Dr.%20med.%20Heribert%20K%C3%B6nig%20Essen"
  },
  {
    "name": "Dr. med. W. Storms",
    "city": "Essen",
    "category": "doctors",
    "nameable": false,
    "entity_type": "person",
    "lat": 51.4027986,
    "lng": 7.0670356,
    "url": "https://www.google.com/maps/search/?api=1&query=Dr.%20med.%20W.%20Storms%20Essen"
  },
  {
    "name": "Warzecha-Malcher Fachärztin für Allgemeinmedizin",
    "city": "Essen",
    "category": "doctors",
    "nameable": false,
    "entity_type": "person",
    "lat": 51.461297,
    "lng": 7.0779197,
    "url": "https://www.google.com/maps/search/?api=1&query=Warzecha-Malcher%20Fach%C3%A4rztin%20f%C3%BCr%20Allgemeinmedizin%20Essen"
  },
  {
    "name": "Internistische Gemeinschaftspraxis Dr.S. Frühauf, R. Dieckmann",
    "city": "Essen",
    "category": "doctors",
    "nameable": false,
    "entity_type": "person",
    "lat": 51.447904,
    "lng": 6.9759247,
    "url": "https://www.google.com/maps/search/?api=1&query=Internistische%20Gemeinschaftspraxis%20Dr.S.%20Fr%C3%BChauf%2C%20R.%20Dieckmann%20Essen"
  },
  {
    "name": "Dr.med. Detlev Strauss Arzt für Allgemeinmedizin",
    "city": "Essen",
    "category": "doctors",
    "nameable": false,
    "entity_type": "person",
    "lat": 51.4470023,
    "lng": 6.9787575,
    "url": "https://www.google.com/maps/search/?api=1&query=Dr.med.%20Detlev%20Strauss%20Arzt%20f%C3%BCr%20Allgemeinmedizin%20Essen"
  },
  {
    "name": "Dr.med. Peter Böhm Neurologe",
    "city": "Essen",
    "category": "doctors",
    "nameable": false,
    "entity_type": "person",
    "lat": 51.4488846,
    "lng": 6.96943,
    "url": "https://www.google.com/maps/search/?api=1&query=Dr.med.%20Peter%20B%C3%B6hm%20Neurologe%20Essen"
  },
  {
    "name": "Löttrich Matthias Dr.med. HNO",
    "city": "Essen",
    "category": "doctors",
    "nameable": false,
    "entity_type": "person",
    "lat": 51.4488911,
    "lng": 6.9695184,
    "url": "https://www.google.com/maps/search/?api=1&query=L%C3%B6ttrich%20Matthias%20Dr.med.%20HNO%20Essen"
  },
  {
    "name": "die Internisten",
    "city": "Essen",
    "category": "doctors",
    "nameable": true,
    "entity_type": "business",
    "lat": 51.4193004,
    "lng": 6.9580587,
    "url": "https://www.google.com/maps/search/?api=1&query=die%20Internisten%20Essen"
  },
  {
    "name": "Dr. Berns",
    "city": "Essen",
    "category": "doctors",
    "nameable": false,
    "entity_type": "person",
    "lat": 51.448315,
    "lng": 7.0132847,
    "url": "https://www.google.com/maps/search/?api=1&query=Dr.%20Berns%20Essen"
  },
  {
    "name": "Ärztehaus am Karlsplatz",
    "city": "Essen",
    "category": "doctors",
    "nameable": true,
    "entity_type": "business",
    "lat": 51.4998948,
    "lng": 7.0081479,
    "url": "https://www.google.com/maps/search/?api=1&query=%C3%84rztehaus%20am%20Karlsplatz%20Essen"
  },
  {
    "name": "LMZ Laser Medizin Zentrum Rhein Ruhr",
    "city": "Essen",
    "category": "doctors",
    "nameable": false,
    "entity_type": "person",
    "lat": 51.457125,
    "lng": 7.0131375,
    "url": "https://www.google.com/maps/search/?api=1&query=LMZ%20Laser%20Medizin%20Zentrum%20Rhein%20Ruhr%20Essen"
  },
  {
    "name": "Notdienstpraxis Essen Ost und Mitte",
    "city": "Essen",
    "category": "doctors",
    "nameable": true,
    "entity_type": "business",
    "lat": 51.4504847,
    "lng": 7.0903046,
    "url": "https://www.google.com/maps/search/?api=1&query=Notdienstpraxis%20Essen%20Ost%20und%20Mitte%20Essen"
  },
  {
    "name": "Krankengymnast Konrad G. Bach",
    "city": "Essen",
    "category": "doctors",
    "nameable": false,
    "entity_type": "person",
    "lat": 51.4405502,
    "lng": 7.0093418,
    "url": "https://www.google.com/maps/search/?api=1&query=Krankengymnast%20Konrad%20G.%20Bach%20Essen"
  },
  {
    "name": "Rü First",
    "city": "Essen",
    "category": "doctors",
    "nameable": false,
    "entity_type": "person",
    "lat": 51.4379828,
    "lng": 7.00584,
    "url": "https://www.google.com/maps/search/?api=1&query=R%C3%BC%20First%20Essen"
  },
  {
    "name": "HNO Zentrum Ruhr",
    "city": "Essen",
    "category": "doctors",
    "nameable": true,
    "entity_type": "business",
    "lat": 51.4380684,
    "lng": 7.0058843,
    "url": "https://www.google.com/maps/search/?api=1&query=HNO%20Zentrum%20Ruhr%20Essen"
  },
  {
    "name": "Hausarztpraxis Rü 91",
    "city": "Essen",
    "category": "doctors",
    "nameable": true,
    "entity_type": "business",
    "lat": 51.4381321,
    "lng": 7.0059001,
    "url": "https://www.google.com/maps/search/?api=1&query=Hausarztpraxis%20R%C3%BC%2091%20Essen"
  },
  {
    "name": "Annette Faßhauer & Susanne Landefeld",
    "city": "Essen",
    "category": "doctors",
    "nameable": false,
    "entity_type": "person",
    "lat": 51.438658,
    "lng": 7.0085687,
    "url": "https://www.google.com/maps/search/?api=1&query=Annette%20Fa%C3%9Fhauer%20%26%20Susanne%20Landefeld%20Essen"
  },
  {
    "name": "Birgit Speicher",
    "city": "Essen",
    "category": "doctors",
    "nameable": false,
    "entity_type": "person",
    "lat": 51.4385461,
    "lng": 7.0080886,
    "url": "https://www.google.com/maps/search/?api=1&query=Birgit%20Speicher%20Essen"
  },
  {
    "name": "F. John & D. Ruprecht",
    "city": "Essen",
    "category": "doctors",
    "nameable": true,
    "entity_type": "business",
    "lat": 51.438528,
    "lng": 7.0080155,
    "url": "https://www.google.com/maps/search/?api=1&query=F.%20John%20%26%20D.%20Ruprecht%20Essen"
  },
  {
    "name": "Rudolf K. Prill",
    "city": "Essen",
    "category": "doctors",
    "nameable": false,
    "entity_type": "person",
    "lat": 51.4385632,
    "lng": 7.0079928,
    "url": "https://www.google.com/maps/search/?api=1&query=Rudolf%20K.%20Prill%20Essen"
  },
  {
    "name": "Hausärzte am Stern",
    "city": "Essen",
    "category": "doctors",
    "nameable": true,
    "entity_type": "business",
    "lat": 51.4376922,
    "lng": 7.0065039,
    "url": "https://www.google.com/maps/search/?api=1&query=Haus%C3%A4rzte%20am%20Stern%20Essen"
  },
  {
    "name": "Urologische Praxis Klinik Essen-Rüttenscheid",
    "city": "Essen",
    "category": "doctors",
    "nameable": true,
    "entity_type": "business",
    "lat": 51.437713,
    "lng": 7.0064949,
    "url": "https://www.google.com/maps/search/?api=1&query=Urologische%20Praxis%20Klinik%20Essen-R%C3%BCttenscheid%20Essen"
  },
  {
    "name": "Hausärztepraxis Kupferdreh",
    "city": "Essen",
    "category": "doctors",
    "nameable": false,
    "entity_type": "person",
    "lat": 51.3918835,
    "lng": 7.0823229,
    "url": "https://www.google.com/maps/search/?api=1&query=Haus%C3%A4rztepraxis%20Kupferdreh%20Essen"
  },
  {
    "name": "Dr. Shammas",
    "city": "Essen",
    "category": "doctors",
    "nameable": false,
    "entity_type": "person",
    "lat": 51.4245191,
    "lng": 6.999739,
    "url": "https://www.google.com/maps/search/?api=1&query=Dr.%20Shammas%20Essen"
  },
  {
    "name": "MVZ Essen Mitte-Süd",
    "city": "Essen",
    "category": "doctors",
    "nameable": true,
    "entity_type": "business",
    "lat": 51.4411036,
    "lng": 6.9909288,
    "url": "https://www.google.com/maps/search/?api=1&query=MVZ%20Essen%20Mitte-S%C3%BCd%20Essen"
  },
  {
    "name": "Dr med Julia Hamann",
    "city": "Essen",
    "category": "doctors",
    "nameable": false,
    "entity_type": "person",
    "lat": 51.3592906,
    "lng": 6.9339609,
    "url": "https://www.google.com/maps/search/?api=1&query=Dr%20med%20Julia%20Hamann%20Essen"
  },
  {
    "name": "Dr. Bähr",
    "city": "Essen",
    "category": "doctors",
    "nameable": false,
    "entity_type": "person",
    "lat": 51.3580791,
    "lng": 6.9340343,
    "url": "https://www.google.com/maps/search/?api=1&query=Dr.%20B%C3%A4hr%20Essen"
  },
  {
    "name": "Dr. Bonin & Tenbrink",
    "city": "Essen",
    "category": "doctors",
    "nameable": false,
    "entity_type": "person",
    "lat": 51.3590552,
    "lng": 6.9326145,
    "url": "https://www.google.com/maps/search/?api=1&query=Dr.%20Bonin%20%26%20Tenbrink%20Essen"
  },
  {
    "name": "Dr. med. Aurel Juncu",
    "city": "Essen",
    "category": "doctors",
    "nameable": false,
    "entity_type": "person",
    "lat": 51.3631007,
    "lng": 6.9370202,
    "url": "https://www.google.com/maps/search/?api=1&query=Dr.%20med.%20Aurel%20Juncu%20Essen"
  },
  {
    "name": "Heydarian",
    "city": "Essen",
    "category": "doctors",
    "nameable": true,
    "entity_type": "business",
    "lat": 51.3637367,
    "lng": 6.9418304,
    "url": "https://www.google.com/maps/search/?api=1&query=Heydarian%20Essen"
  },
  {
    "name": "HNO Gemeinschaftspraxis Essen Dr. Gorf",
    "city": "Essen",
    "category": "doctors",
    "nameable": false,
    "entity_type": "person",
    "lat": 51.3623468,
    "lng": 6.9410376,
    "url": "https://www.google.com/maps/search/?api=1&query=HNO%20Gemeinschaftspraxis%20Essen%20Dr.%20Gorf%20Essen"
  },
  {
    "name": "Dr. Krüger - Urologe",
    "city": "Essen",
    "category": "doctors",
    "nameable": false,
    "entity_type": "person",
    "lat": 51.3626239,
    "lng": 6.9409186,
    "url": "https://www.google.com/maps/search/?api=1&query=Dr.%20Kr%C3%BCger%20-%20Urologe%20Essen"
  },
  {
    "name": "Rode",
    "city": "Essen",
    "category": "doctors",
    "nameable": true,
    "entity_type": "business",
    "lat": 51.3609197,
    "lng": 6.9472175,
    "url": "https://www.google.com/maps/search/?api=1&query=Rode%20Essen"
  },
  {
    "name": "Gemeinschaftspraxis Wiesenstraße",
    "city": "Essen",
    "category": "doctors",
    "nameable": true,
    "entity_type": "business",
    "lat": 51.4477822,
    "lng": 7.0161653,
    "url": "https://www.google.com/maps/search/?api=1&query=Gemeinschaftspraxis%20Wiesenstra%C3%9Fe%20Essen"
  },
  {
    "name": "Ruhrradiologie Essen - Kennedyplatz",
    "city": "Essen",
    "category": "doctors",
    "nameable": true,
    "entity_type": "business",
    "lat": 51.4566904,
    "lng": 7.0103342,
    "url": "https://www.google.com/maps/search/?api=1&query=Ruhrradiologie%20Essen%20-%20Kennedyplatz%20Essen"
  },
  {
    "name": "Internisten Werden",
    "city": "Essen",
    "category": "doctors",
    "nameable": false,
    "entity_type": "person",
    "lat": 51.3880441,
    "lng": 7.0006156,
    "url": "https://www.google.com/maps/search/?api=1&query=Internisten%20Werden%20Essen"
  },
  {
    "name": "Dr.med. Isabel Schuster",
    "city": "Essen",
    "category": "doctors",
    "nameable": false,
    "entity_type": "person",
    "lat": 51.3646647,
    "lng": 6.9366204,
    "url": "https://www.google.com/maps/search/?api=1&query=Dr.med.%20Isabel%20Schuster%20Essen"
  },
  {
    "name": "HNO Dr. Kessler",
    "city": "Essen",
    "category": "doctors",
    "nameable": false,
    "entity_type": "person",
    "lat": 51.3626465,
    "lng": 6.940924,
    "url": "https://www.google.com/maps/search/?api=1&query=HNO%20Dr.%20Kessler%20Essen"
  },
  {
    "name": "Frank Hakopians, Marcus Klinge",
    "city": "Essen",
    "category": "doctors",
    "nameable": false,
    "entity_type": "person",
    "lat": 51.4595005,
    "lng": 6.9795062,
    "url": "https://www.google.com/maps/search/?api=1&query=Frank%20Hakopians%2C%20Marcus%20Klinge%20Essen"
  },
  {
    "name": "Dr. med. S. Roesler",
    "city": "Essen",
    "category": "doctors",
    "nameable": false,
    "entity_type": "person",
    "lat": 51.4593735,
    "lng": 6.9795343,
    "url": "https://www.google.com/maps/search/?api=1&query=Dr.%20med.%20S.%20Roesler%20Essen"
  },
  {
    "name": "Dr. med. T. Vogt",
    "city": "Essen",
    "category": "doctors",
    "nameable": false,
    "entity_type": "person",
    "lat": 51.4593517,
    "lng": 6.9794619,
    "url": "https://www.google.com/maps/search/?api=1&query=Dr.%20med.%20T.%20Vogt%20Essen"
  },
  {
    "name": "Dr. med. A. Nowak",
    "city": "Essen",
    "category": "doctors",
    "nameable": false,
    "entity_type": "person",
    "lat": 51.4593375,
    "lng": 6.9793908,
    "url": "https://www.google.com/maps/search/?api=1&query=Dr.%20med.%20A.%20Nowak%20Essen"
  },
  {
    "name": "Susanne Kolmer",
    "city": "Essen",
    "category": "doctors",
    "nameable": false,
    "entity_type": "person",
    "lat": 51.3900405,
    "lng": 7.0038408,
    "url": "https://www.google.com/maps/search/?api=1&query=Susanne%20Kolmer%20Essen"
  },
  {
    "name": "Lunnemann",
    "city": "Essen",
    "category": "doctors",
    "nameable": true,
    "entity_type": "business",
    "lat": 51.4583536,
    "lng": 6.9349493,
    "url": "https://www.google.com/maps/search/?api=1&query=Lunnemann%20Essen"
  },
  {
    "name": "Gynäkologie Dr. med. Angelika Mennig",
    "city": "Essen",
    "category": "doctors",
    "nameable": false,
    "entity_type": "person",
    "lat": 51.3939695,
    "lng": 7.0823852,
    "url": "https://www.google.com/maps/search/?api=1&query=Gyn%C3%A4kologie%20Dr.%20med.%20Angelika%20Mennig%20Essen"
  },
  {
    "name": "Koch, Dermatologie",
    "city": "Essen",
    "category": "doctors",
    "nameable": false,
    "entity_type": "person",
    "lat": 51.424132,
    "lng": 7.0383985,
    "url": "https://www.google.com/maps/search/?api=1&query=Koch%2C%20Dermatologie%20Essen"
  },
  {
    "name": "Augenärzte Essen",
    "city": "Essen",
    "category": "doctors",
    "nameable": true,
    "entity_type": "business",
    "lat": 51.3885689,
    "lng": 7.015503,
    "url": "https://www.google.com/maps/search/?api=1&query=Augen%C3%A4rzte%20Essen%20Essen"
  },
  {
    "name": "Fachärzte-Zentrum",
    "city": "Essen",
    "category": "doctors",
    "nameable": true,
    "entity_type": "business",
    "lat": 51.473499,
    "lng": 6.9516003,
    "url": "https://www.google.com/maps/search/?api=1&query=Fach%C3%A4rzte-Zentrum%20Essen"
  },
  {
    "name": "Gernot Wagemanns",
    "city": "Essen",
    "category": "doctors",
    "nameable": false,
    "entity_type": "person",
    "lat": 51.3891138,
    "lng": 7.0020822,
    "url": "https://www.google.com/maps/search/?api=1&query=Gernot%20Wagemanns%20Essen"
  },
  {
    "name": "Dr. med. Trabbels",
    "city": "Essen",
    "category": "doctors",
    "nameable": false,
    "entity_type": "person",
    "lat": 51.3883054,
    "lng": 7.0012914,
    "url": "https://www.google.com/maps/search/?api=1&query=Dr.%20med.%20Trabbels%20Essen"
  },
  {
    "name": "D. Sonnenschein Heilpraktiker",
    "city": "Essen",
    "category": "doctors",
    "nameable": false,
    "entity_type": "person",
    "lat": 51.4765848,
    "lng": 6.9588563,
    "url": "https://www.google.com/maps/search/?api=1&query=D.%20Sonnenschein%20Heilpraktiker%20Essen"
  },
  {
    "name": "Stefan Behrendt Facharzt für Allgemeinmedizin",
    "city": "Essen",
    "category": "doctors",
    "nameable": false,
    "entity_type": "person",
    "lat": 51.3894004,
    "lng": 7.0013204,
    "url": "https://www.google.com/maps/search/?api=1&query=Stefan%20Behrendt%20Facharzt%20f%C3%BCr%20Allgemeinmedizin%20Essen"
  },
  {
    "name": "End- und Dickdarm-Zentrum Essen",
    "city": "Essen",
    "category": "doctors",
    "nameable": true,
    "entity_type": "business",
    "lat": 51.4374386,
    "lng": 7.0051946,
    "url": "https://www.google.com/maps/search/?api=1&query=End-%20und%20Dickdarm-Zentrum%20Essen%20Essen"
  },
  {
    "name": "Frau Dr. med. Claudia Asbeck",
    "city": "Essen",
    "category": "doctors",
    "nameable": false,
    "entity_type": "person",
    "lat": 51.3751229,
    "lng": 6.9506645,
    "url": "https://www.google.com/maps/search/?api=1&query=Frau%20Dr.%20med.%20Claudia%20Asbeck%20Essen"
  },
  {
    "name": "Dr.med. Sabine Jäger",
    "city": "Essen",
    "category": "doctors",
    "nameable": false,
    "entity_type": "person",
    "lat": 51.3751835,
    "lng": 6.9506225,
    "url": "https://www.google.com/maps/search/?api=1&query=Dr.med.%20Sabine%20J%C3%A4ger%20Essen"
  },
  {
    "name": "Geburtshaus Essen",
    "city": "Essen",
    "category": "doctors",
    "nameable": true,
    "entity_type": "business",
    "lat": 51.4715929,
    "lng": 6.9607052,
    "url": "https://www.google.com/maps/search/?api=1&query=Geburtshaus%20Essen%20Essen"
  },
  {
    "name": "Hausarztpraxis Bornemann",
    "city": "Essen",
    "category": "doctors",
    "nameable": false,
    "entity_type": "person",
    "lat": 51.522163,
    "lng": 7.0078516,
    "url": "https://www.google.com/maps/search/?api=1&query=Hausarztpraxis%20Bornemann%20Essen"
  },
  {
    "name": "Die Bocholder Hausärzte - Faghih|Friedrichs|Zühlke",
    "city": "Essen",
    "category": "doctors",
    "nameable": false,
    "entity_type": "person",
    "lat": 51.4710567,
    "lng": 6.9627248,
    "url": "https://www.google.com/maps/search/?api=1&query=Die%20Bocholder%20Haus%C3%A4rzte%20-%20Faghih%7CFriedrichs%7CZ%C3%BChlke%20Essen"
  },
  {
    "name": "Privatpraxen für Psychiatrie u. Psychotherapie",
    "city": "Essen",
    "category": "doctors",
    "nameable": true,
    "entity_type": "business",
    "lat": 51.4195844,
    "lng": 7.0222623,
    "url": "https://www.google.com/maps/search/?api=1&query=Privatpraxen%20f%C3%BCr%20Psychiatrie%20u.%20Psychotherapie%20Essen"
  },
  {
    "name": "Praxis Ruhrhalbinsel",
    "city": "Essen",
    "category": "doctors",
    "nameable": true,
    "entity_type": "business",
    "lat": 51.4277044,
    "lng": 7.0743925,
    "url": "https://www.google.com/maps/search/?api=1&query=Praxis%20Ruhrhalbinsel%20Essen"
  },
  {
    "name": "Gemeinschaftspraxis Dr.med. Birgit Nolte/ Rita Niemczyk-Ocklenburg",
    "city": "Essen",
    "category": "doctors",
    "nameable": false,
    "entity_type": "person",
    "lat": 51.4497244,
    "lng": 6.9720151,
    "url": "https://www.google.com/maps/search/?api=1&query=Gemeinschaftspraxis%20Dr.med.%20Birgit%20Nolte%2F%20Rita%20Niemczyk-Ocklenburg%20Essen"
  },
  {
    "name": "Dr. Ehlen, Facharzt Orthopädie",
    "city": "Essen",
    "category": "doctors",
    "nameable": false,
    "entity_type": "person",
    "lat": 51.4302026,
    "lng": 7.0036158,
    "url": "https://www.google.com/maps/search/?api=1&query=Dr.%20Ehlen%2C%20Facharzt%20Orthop%C3%A4die%20Essen"
  },
  {
    "name": "Die Hautärzte Dr. Peiler & Kollegen",
    "city": "Essen",
    "category": "doctors",
    "nameable": false,
    "entity_type": "person",
    "lat": 51.4298923,
    "lng": 7.003531,
    "url": "https://www.google.com/maps/search/?api=1&query=Die%20Haut%C3%A4rzte%20Dr.%20Peiler%20%26%20Kollegen%20Essen"
  },
  {
    "name": "orthoplus",
    "city": "Essen",
    "category": "doctors",
    "nameable": true,
    "entity_type": "business",
    "lat": 51.3621998,
    "lng": 6.9427915,
    "url": "https://www.google.com/maps/search/?api=1&query=orthoplus%20Essen"
  },
  {
    "name": "Neurologische Privatpraxis Essen-Kettwig",
    "city": "Essen",
    "category": "doctors",
    "nameable": false,
    "entity_type": "person",
    "lat": 51.3622161,
    "lng": 6.9427327,
    "url": "https://www.google.com/maps/search/?api=1&query=Neurologische%20Privatpraxis%20Essen-Kettwig%20Essen"
  },
  {
    "name": "Dr. med. Silke Fölmer",
    "city": "Essen",
    "category": "doctors",
    "nameable": false,
    "entity_type": "person",
    "lat": 51.402773,
    "lng": 7.0670597,
    "url": "https://www.google.com/maps/search/?api=1&query=Dr.%20med.%20Silke%20F%C3%B6lmer%20Essen"
  },
  {
    "name": "Dr. med. Ingolf Kuske",
    "city": "Essen",
    "category": "doctors",
    "nameable": false,
    "entity_type": "person",
    "lat": 51.4032352,
    "lng": 7.0669037,
    "url": "https://www.google.com/maps/search/?api=1&query=Dr.%20med.%20Ingolf%20Kuske%20Essen"
  },
  {
    "name": "Dr. med. Kathrin Langner",
    "city": "Essen",
    "category": "doctors",
    "nameable": false,
    "entity_type": "person",
    "lat": 51.4270176,
    "lng": 7.0756712,
    "url": "https://www.google.com/maps/search/?api=1&query=Dr.%20med.%20Kathrin%20Langner%20Essen"
  },
  {
    "name": "Gemeinschaftspraxis, Allgemeinmedizin",
    "city": "Essen",
    "category": "doctors",
    "nameable": true,
    "entity_type": "business",
    "lat": 51.4851946,
    "lng": 7.0646375,
    "url": "https://www.google.com/maps/search/?api=1&query=Gemeinschaftspraxis%2C%20Allgemeinmedizin%20Essen"
  },
  {
    "name": "MKG Ruhrgebiet - Essen",
    "city": "Essen",
    "category": "doctors",
    "nameable": false,
    "entity_type": "person",
    "lat": 51.4540422,
    "lng": 7.0126353,
    "url": "https://www.google.com/maps/search/?api=1&query=MKG%20Ruhrgebiet%20-%20Essen%20Essen"
  },
  {
    "name": "Melodi Aurum-Fazel",
    "city": "Essen",
    "category": "doctors",
    "nameable": false,
    "entity_type": "person",
    "lat": 51.4498225,
    "lng": 6.973831,
    "url": "https://www.google.com/maps/search/?api=1&query=Melodi%20Aurum-Fazel%20Essen"
  },
  {
    "name": "Jörg Lauprecht",
    "city": "Essen",
    "category": "doctors",
    "nameable": false,
    "entity_type": "person",
    "lat": 51.3624679,
    "lng": 6.9441207,
    "url": "https://www.google.com/maps/search/?api=1&query=J%C3%B6rg%20Lauprecht%20Essen"
  },
  {
    "name": "Hausarztpraxis Schalm Oetken",
    "city": "Essen",
    "category": "doctors",
    "nameable": false,
    "entity_type": "person",
    "lat": 51.4446418,
    "lng": 6.9752406,
    "url": "https://www.google.com/maps/search/?api=1&query=Hausarztpraxis%20Schalm%20Oetken%20Essen"
  },
  {
    "name": "Gemeinschaftspraxis Schonnefeldstrasse",
    "city": "Essen",
    "category": "doctors",
    "nameable": true,
    "entity_type": "business",
    "lat": 51.4898719,
    "lng": 7.00801,
    "url": "https://www.google.com/maps/search/?api=1&query=Gemeinschaftspraxis%20Schonnefeldstrasse%20Essen"
  },
  {
    "name": "Gemeinschaftspraxis Alfredstr.",
    "city": "Essen",
    "category": "doctors",
    "nameable": true,
    "entity_type": "business",
    "lat": 51.4389145,
    "lng": 7.0030673,
    "url": "https://www.google.com/maps/search/?api=1&query=Gemeinschaftspraxis%20Alfredstr.%20Essen"
  },
  {
    "name": "Gemeinschaftspraxis Dr. med H. Schmitz / M. B. Friedrich",
    "city": "Essen",
    "category": "doctors",
    "nameable": false,
    "entity_type": "person",
    "lat": 51.448689,
    "lng": 6.966872,
    "url": "https://www.google.com/maps/search/?api=1&query=Gemeinschaftspraxis%20Dr.%20med%20H.%20Schmitz%20%2F%20M.%20B.%20Friedrich%20Essen"
  },
  {
    "name": "Augenärztliche Gemeinschaftspraxis",
    "city": "Essen",
    "category": "doctors",
    "nameable": true,
    "entity_type": "business",
    "lat": 51.4482571,
    "lng": 7.0760809,
    "url": "https://www.google.com/maps/search/?api=1&query=Augen%C3%A4rztliche%20Gemeinschaftspraxis%20Essen"
  },
  {
    "name": "Praxis Dr. med. Thorsten Rau Facharzt für Innere Medizin",
    "city": "Essen",
    "category": "doctors",
    "nameable": false,
    "entity_type": "person",
    "lat": 51.4482522,
    "lng": 7.0760632,
    "url": "https://www.google.com/maps/search/?api=1&query=Praxis%20Dr.%20med.%20Thorsten%20Rau%20Facharzt%20f%C3%BCr%20Innere%20Medizin%20Essen"
  },
  {
    "name": "Dr. med. Thomas Butzengeiger",
    "city": "Essen",
    "category": "doctors",
    "nameable": false,
    "entity_type": "person",
    "lat": 51.4450298,
    "lng": 7.0302521,
    "url": "https://www.google.com/maps/search/?api=1&query=Dr.%20med.%20Thomas%20Butzengeiger%20Essen"
  },
  {
    "name": "Gabrys, Krankengymnastik",
    "city": "Essen",
    "category": "doctors",
    "nameable": false,
    "entity_type": "person",
    "lat": 51.4920296,
    "lng": 6.9423147,
    "url": "https://www.google.com/maps/search/?api=1&query=Gabrys%2C%20Krankengymnastik%20Essen"
  },
  {
    "name": "Döring, Allgemeinmdizin",
    "city": "Essen",
    "category": "doctors",
    "nameable": false,
    "entity_type": "person",
    "lat": 51.4920112,
    "lng": 6.9423539,
    "url": "https://www.google.com/maps/search/?api=1&query=D%C3%B6ring%2C%20Allgemeinmdizin%20Essen"
  },
  {
    "name": "Dr. med. Basel Yunes",
    "city": "Essen",
    "category": "doctors",
    "nameable": false,
    "entity_type": "person",
    "lat": 51.4616588,
    "lng": 6.9710862,
    "url": "https://www.google.com/maps/search/?api=1&query=Dr.%20med.%20Basel%20Yunes%20Essen"
  },
  {
    "name": "Praxis Central",
    "city": "Essen",
    "category": "doctors",
    "nameable": true,
    "entity_type": "business",
    "lat": 51.4523221,
    "lng": 7.0125963,
    "url": "https://www.google.com/maps/search/?api=1&query=Praxis%20Central%20Essen"
  },
  {
    "name": "Braxis Dr. Baars",
    "city": "Essen",
    "category": "doctors",
    "nameable": false,
    "entity_type": "person",
    "lat": 51.4477336,
    "lng": 6.9700523,
    "url": "https://www.google.com/maps/search/?api=1&query=Braxis%20Dr.%20Baars%20Essen"
  },
  {
    "name": "Dr. med. A. Rupp u P. Kasper - MVZ Essen-Altenessen GmbH",
    "city": "Essen",
    "category": "doctors",
    "nameable": true,
    "entity_type": "legal",
    "lat": 51.4960959,
    "lng": 7.0075399,
    "url": "https://www.google.com/maps/search/?api=1&query=Dr.%20med.%20A.%20Rupp%20u%20P.%20Kasper%20-%20MVZ%20Essen-Altenessen%20GmbH%20Essen"
  },
  {
    "name": "MVZ Augenklinik Altenessen GmbH",
    "city": "Essen",
    "category": "doctors",
    "nameable": true,
    "entity_type": "legal",
    "lat": 51.4961159,
    "lng": 7.0076016,
    "url": "https://www.google.com/maps/search/?api=1&query=MVZ%20Augenklinik%20Altenessen%20GmbH%20Essen"
  },
  {
    "name": "Gemeinschaftspraxis Dr. Sina und Partner",
    "city": "Essen",
    "category": "doctors",
    "nameable": false,
    "entity_type": "person",
    "lat": 51.4222263,
    "lng": 7.0280825,
    "url": "https://www.google.com/maps/search/?api=1&query=Gemeinschaftspraxis%20Dr.%20Sina%20und%20Partner%20Essen"
  },
  {
    "name": "Martin Grassl",
    "city": "Essen",
    "category": "doctors",
    "nameable": false,
    "entity_type": "person",
    "lat": 51.4211356,
    "lng": 7.0263338,
    "url": "https://www.google.com/maps/search/?api=1&query=Martin%20Grassl%20Essen"
  },
  {
    "name": "HNO-Arztpraxis Dr. med. Barbara Heep Alexander Korte",
    "city": "Essen",
    "category": "doctors",
    "nameable": false,
    "entity_type": "person",
    "lat": 51.418801,
    "lng": 7.0253464,
    "url": "https://www.google.com/maps/search/?api=1&query=HNO-Arztpraxis%20Dr.%20med.%20Barbara%20Heep%20Alexander%20Korte%20Essen"
  },
  {
    "name": "Dr. Najib Jabbour",
    "city": "Essen",
    "category": "doctors",
    "nameable": false,
    "entity_type": "person",
    "lat": 51.4418896,
    "lng": 6.9983518,
    "url": "https://www.google.com/maps/search/?api=1&query=Dr.%20Najib%20Jabbour%20Essen"
  },
  {
    "name": "Gemeinschaftspraxis Dr. med. Schramm-Groß, Dr. med. Rotter",
    "city": "Essen",
    "category": "doctors",
    "nameable": false,
    "entity_type": "person",
    "lat": 51.4756389,
    "lng": 7.0334829,
    "url": "https://www.google.com/maps/search/?api=1&query=Gemeinschaftspraxis%20Dr.%20med.%20Schramm-Gro%C3%9F%2C%20Dr.%20med.%20Rotter%20Essen"
  },
  {
    "name": "Machera-Lehmann",
    "city": "Essen",
    "category": "doctors",
    "nameable": true,
    "entity_type": "business",
    "lat": 51.4333187,
    "lng": 7.0275801,
    "url": "https://www.google.com/maps/search/?api=1&query=Machera-Lehmann%20Essen"
  },
  {
    "name": "Dr. Esser",
    "city": "Essen",
    "category": "doctors",
    "nameable": false,
    "entity_type": "person",
    "lat": 51.3626937,
    "lng": 6.9406189,
    "url": "https://www.google.com/maps/search/?api=1&query=Dr.%20Esser%20Essen"
  },
  {
    "name": "Dr. Deuse",
    "city": "Essen",
    "category": "doctors",
    "nameable": false,
    "entity_type": "person",
    "lat": 51.3627149,
    "lng": 6.9406224,
    "url": "https://www.google.com/maps/search/?api=1&query=Dr.%20Deuse%20Essen"
  },
  {
    "name": "Dr. Farke / Dr. Mauß Augenärztinnen",
    "city": "Essen",
    "category": "doctors",
    "nameable": false,
    "entity_type": "person",
    "lat": 51.3627454,
    "lng": 6.939987,
    "url": "https://www.google.com/maps/search/?api=1&query=Dr.%20Farke%20%2F%20Dr.%20Mau%C3%9F%20Augen%C3%A4rztinnen%20Essen"
  },
  {
    "name": "Dr. Sahre",
    "city": "Essen",
    "category": "doctors",
    "nameable": false,
    "entity_type": "person",
    "lat": 51.3641603,
    "lng": 6.942103,
    "url": "https://www.google.com/maps/search/?api=1&query=Dr.%20Sahre%20Essen"
  },
  {
    "name": "Platzner - Neurologe",
    "city": "Essen",
    "category": "doctors",
    "nameable": true,
    "entity_type": "business",
    "lat": 51.3626361,
    "lng": 6.9409253,
    "url": "https://www.google.com/maps/search/?api=1&query=Platzner%20-%20Neurologe%20Essen"
  },
  {
    "name": "Psychosomatisch-psychotherapeutische Ambulanz",
    "city": "Essen",
    "category": "doctors",
    "nameable": false,
    "entity_type": "person",
    "lat": 51.4384139,
    "lng": 6.9909471,
    "url": "https://www.google.com/maps/search/?api=1&query=Psychosomatisch-psychotherapeutische%20Ambulanz%20Essen"
  },
  {
    "name": "Michail Mospanov",
    "city": "Essen",
    "category": "doctors",
    "nameable": false,
    "entity_type": "person",
    "lat": 51.4332621,
    "lng": 7.0016875,
    "url": "https://www.google.com/maps/search/?api=1&query=Michail%20Mospanov%20Essen"
  },
  {
    "name": "Dr. med. Michael Gonsior",
    "city": "Essen",
    "category": "doctors",
    "nameable": false,
    "entity_type": "person",
    "lat": 51.4013584,
    "lng": 7.0652629,
    "url": "https://www.google.com/maps/search/?api=1&query=Dr.%20med.%20Michael%20Gonsior%20Essen"
  },
  {
    "name": "Dr. M. Beer, Prof. Dr. R. Beer",
    "city": "Essen",
    "category": "doctors",
    "nameable": false,
    "entity_type": "person",
    "lat": 51.4464725,
    "lng": 7.0758313,
    "url": "https://www.google.com/maps/search/?api=1&query=Dr.%20M.%20Beer%2C%20Prof.%20Dr.%20R.%20Beer%20Essen"
  },
  {
    "name": "Dr. med. J. Schöne, Dr. med. S. Faustmann (HNO)",
    "city": "Essen",
    "category": "doctors",
    "nameable": false,
    "entity_type": "person",
    "lat": 51.4464787,
    "lng": 7.0757928,
    "url": "https://www.google.com/maps/search/?api=1&query=Dr.%20med.%20J.%20Sch%C3%B6ne%2C%20Dr.%20med.%20S.%20Faustmann%20(HNO)%20Essen"
  },
  {
    "name": "Dr.med. B. Galland; Dr. med. A. Lehner",
    "city": "Essen",
    "category": "doctors",
    "nameable": false,
    "entity_type": "person",
    "lat": 51.4006619,
    "lng": 7.0666674,
    "url": "https://www.google.com/maps/search/?api=1&query=Dr.med.%20B.%20Galland%3B%20Dr.%20med.%20A.%20Lehner%20Essen"
  },
  {
    "name": "Dr. med Simone Zumegen",
    "city": "Essen",
    "category": "doctors",
    "nameable": false,
    "entity_type": "person",
    "lat": 51.4025415,
    "lng": 7.0682212,
    "url": "https://www.google.com/maps/search/?api=1&query=Dr.%20med%20Simone%20Zumegen%20Essen"
  },
  {
    "name": "Dr. med Mitra Hengge",
    "city": "Essen",
    "category": "doctors",
    "nameable": false,
    "entity_type": "person",
    "lat": 51.4444732,
    "lng": 7.0085523,
    "url": "https://www.google.com/maps/search/?api=1&query=Dr.%20med%20Mitra%20Hengge%20Essen"
  },
  {
    "name": "Dr.med. Inge Staubermann",
    "city": "Essen",
    "category": "doctors",
    "nameable": false,
    "entity_type": "person",
    "lat": 51.3935646,
    "lng": 7.0787459,
    "url": "https://www.google.com/maps/search/?api=1&query=Dr.med.%20Inge%20Staubermann%20Essen"
  },
  {
    "name": "Dr. med. Lida Ghahari Fachärztin für Allgemeinmedizin, Innere Medizin und Kardiologie",
    "city": "Essen",
    "category": "doctors",
    "nameable": false,
    "entity_type": "person",
    "lat": 51.4006197,
    "lng": 7.0656145,
    "url": "https://www.google.com/maps/search/?api=1&query=Dr.%20med.%20Lida%20Ghahari%20Fach%C3%A4rztin%20f%C3%BCr%20Allgemeinmedizin%2C%20Innere%20Medizin%20und%20Kardiologie%20Essen"
  },
  {
    "name": "Hausärztinnen Huttrop",
    "city": "Essen",
    "category": "doctors",
    "nameable": false,
    "entity_type": "person",
    "lat": 51.4449947,
    "lng": 7.0529182,
    "url": "https://www.google.com/maps/search/?api=1&query=Haus%C3%A4rztinnen%20Huttrop%20Essen"
  },
  {
    "name": "Kowol, Kinga Brigitte",
    "city": "Essen",
    "category": "doctors",
    "nameable": false,
    "entity_type": "person",
    "lat": 51.4676009,
    "lng": 7.0156409,
    "url": "https://www.google.com/maps/search/?api=1&query=Kowol%2C%20Kinga%20Brigitte%20Essen"
  },
  {
    "name": "Dr. Aylin Kümmel",
    "city": "Essen",
    "category": "doctors",
    "nameable": false,
    "entity_type": "person",
    "lat": 51.4385812,
    "lng": 7.0080661,
    "url": "https://www.google.com/maps/search/?api=1&query=Dr.%20Aylin%20K%C3%BCmmel%20Essen"
  },
  {
    "name": "Praxis Dr. Wittkampf",
    "city": "Essen",
    "category": "doctors",
    "nameable": false,
    "entity_type": "person",
    "lat": 51.4380645,
    "lng": 7.0059192,
    "url": "https://www.google.com/maps/search/?api=1&query=Praxis%20Dr.%20Wittkampf%20Essen"
  },
  {
    "name": "Praxis Villa Vie",
    "city": "Essen",
    "category": "doctors",
    "nameable": false,
    "entity_type": "person",
    "lat": 51.4437445,
    "lng": 7.0253623,
    "url": "https://www.google.com/maps/search/?api=1&query=Praxis%20Villa%20Vie%20Essen"
  },
  {
    "name": "Achim Rhode, Sven Volkmuth",
    "city": "Essen",
    "category": "doctors",
    "nameable": false,
    "entity_type": "person",
    "lat": 51.4451218,
    "lng": 7.0311619,
    "url": "https://www.google.com/maps/search/?api=1&query=Achim%20Rhode%2C%20Sven%20Volkmuth%20Essen"
  },
  {
    "name": "Notfallpraxis für Kinder und Jugendliche",
    "city": "Essen",
    "category": "doctors",
    "nameable": true,
    "entity_type": "business",
    "lat": 51.4450632,
    "lng": 7.0312458,
    "url": "https://www.google.com/maps/search/?api=1&query=Notfallpraxis%20f%C3%BCr%20Kinder%20und%20Jugendliche%20Essen"
  },
  {
    "name": "Praxis am See",
    "city": "Essen",
    "category": "doctors",
    "nameable": true,
    "entity_type": "business",
    "lat": 51.3853731,
    "lng": 6.9964915,
    "url": "https://www.google.com/maps/search/?api=1&query=Praxis%20am%20See%20Essen"
  },
  {
    "name": "Praxis für Psychoonkologie",
    "city": "Essen",
    "category": "doctors",
    "nameable": true,
    "entity_type": "business",
    "lat": 51.4380963,
    "lng": 7.0062067,
    "url": "https://www.google.com/maps/search/?api=1&query=Praxis%20f%C3%BCr%20Psychoonkologie%20Essen"
  },
  {
    "name": "Dr. med. Jens Krug",
    "city": "Essen",
    "category": "doctors",
    "nameable": false,
    "entity_type": "person",
    "lat": 51.4093292,
    "lng": 7.0580442,
    "url": "https://www.google.com/maps/search/?api=1&query=Dr.%20med.%20Jens%20Krug%20Essen"
  },
  {
    "name": "Hausärzte Jacobsallee",
    "city": "Essen",
    "category": "doctors",
    "nameable": false,
    "entity_type": "person",
    "lat": 51.3772441,
    "lng": 7.0136459,
    "url": "https://www.google.com/maps/search/?api=1&query=Haus%C3%A4rzte%20Jacobsallee%20Essen"
  },
  {
    "name": "Dr. med. Victor Kirschmann",
    "city": "Essen",
    "category": "doctors",
    "nameable": false,
    "entity_type": "person",
    "lat": 51.3871449,
    "lng": 7.0034086,
    "url": "https://www.google.com/maps/search/?api=1&query=Dr.%20med.%20Victor%20Kirschmann%20Essen"
  },
  {
    "name": "Dr. Hans-Gerhard Kraus",
    "city": "Essen",
    "category": "doctors",
    "nameable": false,
    "entity_type": "person",
    "lat": 51.3858967,
    "lng": 7.0134093,
    "url": "https://www.google.com/maps/search/?api=1&query=Dr.%20Hans-Gerhard%20Kraus%20Essen"
  },
  {
    "name": "Dr. med. Natascha Rensing",
    "city": "Essen",
    "category": "doctors",
    "nameable": false,
    "entity_type": "person",
    "lat": 51.3837465,
    "lng": 7.0236901,
    "url": "https://www.google.com/maps/search/?api=1&query=Dr.%20med.%20Natascha%20Rensing%20Essen"
  },
  {
    "name": "Privatpraxis Erkurt",
    "city": "Essen",
    "category": "doctors",
    "nameable": false,
    "entity_type": "person",
    "lat": 51.4362737,
    "lng": 6.9795625,
    "url": "https://www.google.com/maps/search/?api=1&query=Privatpraxis%20Erkurt%20Essen"
  },
  {
    "name": "Urologische Praxis Klinik Essen-Stadtwald",
    "city": "Essen",
    "category": "doctors",
    "nameable": true,
    "entity_type": "business",
    "lat": 51.4219207,
    "lng": 7.0275271,
    "url": "https://www.google.com/maps/search/?api=1&query=Urologische%20Praxis%20Klinik%20Essen-Stadtwald%20Essen"
  },
  {
    "name": "Urologische Praxis Klinik Essen-Werden",
    "city": "Essen",
    "category": "doctors",
    "nameable": true,
    "entity_type": "business",
    "lat": 51.3880377,
    "lng": 7.0014728,
    "url": "https://www.google.com/maps/search/?api=1&query=Urologische%20Praxis%20Klinik%20Essen-Werden%20Essen"
  },
  {
    "name": "therapieraum essen",
    "city": "Essen",
    "category": "doctors",
    "nameable": true,
    "entity_type": "business",
    "lat": 51.4578244,
    "lng": 7.0131403,
    "url": "https://www.google.com/maps/search/?api=1&query=therapieraum%20essen%20Essen"
  },
  {
    "name": "Huttroper Hausarztpraxis",
    "city": "Essen",
    "category": "doctors",
    "nameable": false,
    "entity_type": "person",
    "lat": 51.4491011,
    "lng": 7.0349172,
    "url": "https://www.google.com/maps/search/?api=1&query=Huttroper%20Hausarztpraxis%20Essen"
  },
  {
    "name": "Hautarzt Haake",
    "city": "Essen",
    "category": "doctors",
    "nameable": false,
    "entity_type": "person",
    "lat": 51.467057,
    "lng": 7.0807264,
    "url": "https://www.google.com/maps/search/?api=1&query=Hautarzt%20Haake%20Essen"
  },
  {
    "name": "Dr. Häuser",
    "city": "Essen",
    "category": "veterinary",
    "nameable": false,
    "entity_type": "person",
    "lat": 51.4345979,
    "lng": 7.0304111,
    "url": "https://www.google.com/maps/search/?api=1&query=Dr.%20H%C3%A4user%20Essen"
  },
  {
    "name": "Tierarzt Baumgart",
    "city": "Essen",
    "category": "veterinary",
    "nameable": false,
    "entity_type": "person",
    "lat": 51.4472723,
    "lng": 6.9761159,
    "url": "https://www.google.com/maps/search/?api=1&query=Tierarzt%20Baumgart%20Essen"
  },
  {
    "name": "Tierarztpraxis Dr. C. Lehnen",
    "city": "Essen",
    "category": "veterinary",
    "nameable": false,
    "entity_type": "person",
    "lat": 51.4030229,
    "lng": 7.066948,
    "url": "https://www.google.com/maps/search/?api=1&query=Tierarztpraxis%20Dr.%20C.%20Lehnen%20Essen"
  },
  {
    "name": "Jutta Kaucke",
    "city": "Essen",
    "category": "veterinary",
    "nameable": false,
    "entity_type": "person",
    "lat": 51.4749414,
    "lng": 7.0370941,
    "url": "https://www.google.com/maps/search/?api=1&query=Jutta%20Kaucke%20Essen"
  },
  {
    "name": "Tierärztliche Klinik",
    "city": "Essen",
    "category": "veterinary",
    "nameable": true,
    "entity_type": "business",
    "lat": 51.4906919,
    "lng": 7.0109328,
    "url": "https://www.google.com/maps/search/?api=1&query=Tier%C3%A4rztliche%20Klinik%20Essen"
  },
  {
    "name": "Metzlaff, Kleintierpraxis",
    "city": "Essen",
    "category": "veterinary",
    "nameable": false,
    "entity_type": "person",
    "lat": 51.4613705,
    "lng": 6.9680343,
    "url": "https://www.google.com/maps/search/?api=1&query=Metzlaff%2C%20Kleintierpraxis%20Essen"
  },
  {
    "name": "Doktor Birgit Keßler\nDoktor Jörg Keßler",
    "city": "Essen",
    "category": "veterinary",
    "nameable": false,
    "entity_type": "person",
    "lat": 51.3857159,
    "lng": 7.0265329,
    "url": "https://www.google.com/maps/search/?api=1&query=Doktor%20Birgit%20Ke%C3%9Fler%0ADoktor%20J%C3%B6rg%20Ke%C3%9Fler%20Essen"
  },
  {
    "name": "Dr.Stöcker-Tierärztin",
    "city": "Essen",
    "category": "veterinary",
    "nameable": false,
    "entity_type": "person",
    "lat": 51.3582864,
    "lng": 6.9330995,
    "url": "https://www.google.com/maps/search/?api=1&query=Dr.St%C3%B6cker-Tier%C3%A4rztin%20Essen"
  },
  {
    "name": "Tierärztliche Praxis am Reuenberg",
    "city": "Essen",
    "category": "veterinary",
    "nameable": true,
    "entity_type": "business",
    "lat": 51.4782124,
    "lng": 6.9279352,
    "url": "https://www.google.com/maps/search/?api=1&query=Tier%C3%A4rztliche%20Praxis%20am%20Reuenberg%20Essen"
  },
  {
    "name": "Katrin Vogel Tierphysiotherapie",
    "city": "Essen",
    "category": "veterinary",
    "nameable": false,
    "entity_type": "person",
    "lat": 51.4012885,
    "lng": 7.0656508,
    "url": "https://www.google.com/maps/search/?api=1&query=Katrin%20Vogel%20Tierphysiotherapie%20Essen"
  },
  {
    "name": "Dr. Charlotte Virchow",
    "city": "Essen",
    "category": "veterinary",
    "nameable": false,
    "entity_type": "person",
    "lat": 51.42452,
    "lng": 7.0000231,
    "url": "https://www.google.com/maps/search/?api=1&query=Dr.%20Charlotte%20Virchow%20Essen"
  },
  {
    "name": "Tierarztpraxis Schott",
    "city": "Essen",
    "category": "veterinary",
    "nameable": false,
    "entity_type": "person",
    "lat": 51.44678,
    "lng": 7.0462309,
    "url": "https://www.google.com/maps/search/?api=1&query=Tierarztpraxis%20Schott%20Essen"
  },
  {
    "name": "Tierarztpraxis Doc Opp",
    "city": "Essen",
    "category": "veterinary",
    "nameable": false,
    "entity_type": "person",
    "lat": 51.363881,
    "lng": 6.9419057,
    "url": "https://www.google.com/maps/search/?api=1&query=Tierarztpraxis%20Doc%20Opp%20Essen"
  },
  {
    "name": "Dr. Sabel - Tierarzt",
    "city": "Essen",
    "category": "veterinary",
    "nameable": false,
    "entity_type": "person",
    "lat": 51.4392521,
    "lng": 7.0037553,
    "url": "https://www.google.com/maps/search/?api=1&query=Dr.%20Sabel%20-%20Tierarzt%20Essen"
  },
  {
    "name": "Dr. med. vet. Annette Baltes-Owczarzak",
    "city": "Essen",
    "category": "veterinary",
    "nameable": false,
    "entity_type": "person",
    "lat": 51.4741795,
    "lng": 6.9655586,
    "url": "https://www.google.com/maps/search/?api=1&query=Dr.%20med.%20vet.%20Annette%20Baltes-Owczarzak%20Essen"
  },
  {
    "name": "Dr. Irmhild Folgmann",
    "city": "Essen",
    "category": "veterinary",
    "nameable": false,
    "entity_type": "person",
    "lat": 51.4329857,
    "lng": 7.0029946,
    "url": "https://www.google.com/maps/search/?api=1&query=Dr.%20Irmhild%20Folgmann%20Essen"
  },
  {
    "name": "Taubenklinik",
    "city": "Essen",
    "category": "veterinary",
    "nameable": true,
    "entity_type": "business",
    "lat": 51.5050137,
    "lng": 7.0500044,
    "url": "https://www.google.com/maps/search/?api=1&query=Taubenklinik%20Essen"
  },
  {
    "name": "Höfel",
    "city": "Essen",
    "category": "veterinary",
    "nameable": true,
    "entity_type": "business",
    "lat": 51.4391699,
    "lng": 7.0905164,
    "url": "https://www.google.com/maps/search/?api=1&query=H%C3%B6fel%20Essen"
  },
  {
    "name": "Stroh, H.",
    "city": "Essen",
    "category": "lawyer",
    "nameable": false,
    "entity_type": "person",
    "lat": 51.4420685,
    "lng": 6.9868672,
    "url": "https://www.google.com/maps/search/?api=1&query=Stroh%2C%20H.%20Essen"
  },
  {
    "name": "LEGACON Rechtsanwälte",
    "city": "Essen",
    "category": "lawyer",
    "nameable": false,
    "entity_type": "person",
    "lat": 51.4370949,
    "lng": 7.0065816,
    "url": "https://www.google.com/maps/search/?api=1&query=LEGACON%20Rechtsanw%C3%A4lte%20Essen"
  },
  {
    "name": "Greiwe, C.",
    "city": "Essen",
    "category": "lawyer",
    "nameable": false,
    "entity_type": "person",
    "lat": 51.4423921,
    "lng": 6.9872229,
    "url": "https://www.google.com/maps/search/?api=1&query=Greiwe%2C%20C.%20Essen"
  },
  {
    "name": "Traphan Graute Bremer Rechtsanwälte",
    "city": "Essen",
    "category": "lawyer",
    "nameable": false,
    "entity_type": "person",
    "lat": 51.4273277,
    "lng": 7.0024332,
    "url": "https://www.google.com/maps/search/?api=1&query=Traphan%20Graute%20Bremer%20Rechtsanw%C3%A4lte%20Essen"
  },
  {
    "name": "Jürgen Graser Fachanwalt für Arbeitsrecht; Erbrecht",
    "city": "Essen",
    "category": "lawyer",
    "nameable": false,
    "entity_type": "person",
    "lat": 51.4488013,
    "lng": 7.0753405,
    "url": "https://www.google.com/maps/search/?api=1&query=J%C3%BCrgen%20Graser%20Fachanwalt%20f%C3%BCr%20Arbeitsrecht%3B%20Erbrecht%20Essen"
  },
  {
    "name": "Birgit Bugiel Fachanwältin für Familienrecht; Erbrecht",
    "city": "Essen",
    "category": "lawyer",
    "nameable": false,
    "entity_type": "person",
    "lat": 51.4487693,
    "lng": 7.0753362,
    "url": "https://www.google.com/maps/search/?api=1&query=Birgit%20Bugiel%20Fachanw%C3%A4ltin%20f%C3%BCr%20Familienrecht%3B%20Erbrecht%20Essen"
  },
  {
    "name": "ABALEGIS Graser - Rechtsanwälte",
    "city": "Essen",
    "category": "lawyer",
    "nameable": false,
    "entity_type": "person",
    "lat": 51.4487628,
    "lng": 7.0753357,
    "url": "https://www.google.com/maps/search/?api=1&query=ABALEGIS%20Graser%20-%20Rechtsanw%C3%A4lte%20Essen"
  },
  {
    "name": "S. Tessling",
    "city": "Essen",
    "category": "lawyer",
    "nameable": false,
    "entity_type": "person",
    "lat": 51.4400058,
    "lng": 7.0089024,
    "url": "https://www.google.com/maps/search/?api=1&query=S.%20Tessling%20Essen"
  },
  {
    "name": "Müller-Vogelsang PartGmbB – Rechtsanwälte",
    "city": "Essen",
    "category": "lawyer",
    "nameable": true,
    "entity_type": "legal",
    "lat": 51.4441715,
    "lng": 7.0082173,
    "url": "https://www.google.com/maps/search/?api=1&query=M%C3%BCller-Vogelsang%20PartGmbB%20%E2%80%93%20Rechtsanw%C3%A4lte%20Essen"
  },
  {
    "name": "CNH Anwälte",
    "city": "Essen",
    "category": "lawyer",
    "nameable": false,
    "entity_type": "person",
    "lat": 51.4402651,
    "lng": 7.0109458,
    "url": "https://www.google.com/maps/search/?api=1&query=CNH%20Anw%C3%A4lte%20Essen"
  },
  {
    "name": "Ulrike Muhr",
    "city": "Essen",
    "category": "lawyer",
    "nameable": false,
    "entity_type": "person",
    "lat": 51.4390813,
    "lng": 7.0110059,
    "url": "https://www.google.com/maps/search/?api=1&query=Ulrike%20Muhr%20Essen"
  },
  {
    "name": "Andrea Rademacher",
    "city": "Essen",
    "category": "lawyer",
    "nameable": false,
    "entity_type": "person",
    "lat": 51.4408102,
    "lng": 7.0091649,
    "url": "https://www.google.com/maps/search/?api=1&query=Andrea%20Rademacher%20Essen"
  },
  {
    "name": "Dorothee Düttmann",
    "city": "Essen",
    "category": "lawyer",
    "nameable": false,
    "entity_type": "person",
    "lat": 51.4408535,
    "lng": 7.0091382,
    "url": "https://www.google.com/maps/search/?api=1&query=Dorothee%20D%C3%BCttmann%20Essen"
  },
  {
    "name": "Andreas Lauer",
    "city": "Essen",
    "category": "lawyer",
    "nameable": false,
    "entity_type": "person",
    "lat": 51.4400897,
    "lng": 7.0063926,
    "url": "https://www.google.com/maps/search/?api=1&query=Andreas%20Lauer%20Essen"
  },
  {
    "name": "Bürogemeinschaft Rechtsanwälte",
    "city": "Essen",
    "category": "lawyer",
    "nameable": false,
    "entity_type": "person",
    "lat": 51.437601,
    "lng": 7.0065106,
    "url": "https://www.google.com/maps/search/?api=1&query=B%C3%BCrogemeinschaft%20Rechtsanw%C3%A4lte%20Essen"
  },
  {
    "name": "Horlitz, Keith & Partner",
    "city": "Essen",
    "category": "lawyer",
    "nameable": false,
    "entity_type": "person",
    "lat": 51.4380248,
    "lng": 7.008797,
    "url": "https://www.google.com/maps/search/?api=1&query=Horlitz%2C%20Keith%20%26%20Partner%20Essen"
  },
  {
    "name": "Fischer & Großmann",
    "city": "Essen",
    "category": "lawyer",
    "nameable": false,
    "entity_type": "person",
    "lat": 51.4385935,
    "lng": 7.008124,
    "url": "https://www.google.com/maps/search/?api=1&query=Fischer%20%26%20Gro%C3%9Fmann%20Essen"
  },
  {
    "name": "Daube & Kämereit",
    "city": "Essen",
    "category": "lawyer",
    "nameable": false,
    "entity_type": "person",
    "lat": 51.440539,
    "lng": 7.006863,
    "url": "https://www.google.com/maps/search/?api=1&query=Daube%20%26%20K%C3%A4mereit%20Essen"
  },
  {
    "name": "Ulrich Rademacher",
    "city": "Essen",
    "category": "lawyer",
    "nameable": false,
    "entity_type": "person",
    "lat": 51.4388339,
    "lng": 7.0073459,
    "url": "https://www.google.com/maps/search/?api=1&query=Ulrich%20Rademacher%20Essen"
  },
  {
    "name": "Claudia Lindemann",
    "city": "Essen",
    "category": "lawyer",
    "nameable": false,
    "entity_type": "person",
    "lat": 51.4371954,
    "lng": 7.0070084,
    "url": "https://www.google.com/maps/search/?api=1&query=Claudia%20Lindemann%20Essen"
  },
  {
    "name": "Kanzlei Jenzen",
    "city": "Essen",
    "category": "lawyer",
    "nameable": true,
    "entity_type": "business",
    "lat": 51.4371119,
    "lng": 7.1023913,
    "url": "https://www.google.com/maps/search/?api=1&query=Kanzlei%20Jenzen%20Essen"
  },
  {
    "name": "Rechtsanwälte Dr. Grotkamp & Blank",
    "city": "Essen",
    "category": "lawyer",
    "nameable": false,
    "entity_type": "person",
    "lat": 51.3858973,
    "lng": 7.0256281,
    "url": "https://www.google.com/maps/search/?api=1&query=Rechtsanw%C3%A4lte%20Dr.%20Grotkamp%20%26%20Blank%20Essen"
  },
  {
    "name": "Lawlor, Schütt, Brede",
    "city": "Essen",
    "category": "lawyer",
    "nameable": false,
    "entity_type": "person",
    "lat": 51.3920545,
    "lng": 7.0825954,
    "url": "https://www.google.com/maps/search/?api=1&query=Lawlor%2C%20Sch%C3%BCtt%2C%20Brede%20Essen"
  },
  {
    "name": "Dr. Wolfgang O. Hey",
    "city": "Essen",
    "category": "lawyer",
    "nameable": false,
    "entity_type": "person",
    "lat": 51.3870417,
    "lng": 7.0036974,
    "url": "https://www.google.com/maps/search/?api=1&query=Dr.%20Wolfgang%20O.%20Hey%20Essen"
  },
  {
    "name": "Schumacher & Partner",
    "city": "Essen",
    "category": "lawyer",
    "nameable": true,
    "entity_type": "business",
    "lat": 51.4143102,
    "lng": 6.9973259,
    "url": "https://www.google.com/maps/search/?api=1&query=Schumacher%20%26%20Partner%20Essen"
  },
  {
    "name": "Schmidt | von der Osten | Huber",
    "city": "Essen",
    "category": "lawyer",
    "nameable": true,
    "entity_type": "business",
    "lat": 51.4416762,
    "lng": 7.0064966,
    "url": "https://www.google.com/maps/search/?api=1&query=Schmidt%20%7C%20von%20der%20Osten%20%7C%20Huber%20Essen"
  },
  {
    "name": "Dagmar Ostwald-Stindt;Monika Fränkel;Lars Dippel",
    "city": "Essen",
    "category": "lawyer",
    "nameable": true,
    "entity_type": "business",
    "lat": 51.4500249,
    "lng": 6.9767222,
    "url": "https://www.google.com/maps/search/?api=1&query=Dagmar%20Ostwald-Stindt%3BMonika%20Fr%C3%A4nkel%3BLars%20Dippel%20Essen"
  },
  {
    "name": "Magdalena Rabsztyn",
    "city": "Essen",
    "category": "lawyer",
    "nameable": false,
    "entity_type": "person",
    "lat": 51.4489702,
    "lng": 6.973319,
    "url": "https://www.google.com/maps/search/?api=1&query=Magdalena%20Rabsztyn%20Essen"
  },
  {
    "name": "Ismail Kilicli",
    "city": "Essen",
    "category": "lawyer",
    "nameable": false,
    "entity_type": "person",
    "lat": 51.4489677,
    "lng": 6.9732499,
    "url": "https://www.google.com/maps/search/?api=1&query=Ismail%20Kilicli%20Essen"
  },
  {
    "name": "Haus des Jugendrechts - Essen",
    "city": "Essen",
    "category": "lawyer",
    "nameable": true,
    "entity_type": "business",
    "lat": 51.4353518,
    "lng": 7.0018356,
    "url": "https://www.google.com/maps/search/?api=1&query=Haus%20des%20Jugendrechts%20-%20Essen%20Essen"
  },
  {
    "name": "Louis &Michaelis",
    "city": "Essen",
    "category": "lawyer",
    "nameable": false,
    "entity_type": "person",
    "lat": 51.4353691,
    "lng": 7.0018577,
    "url": "https://www.google.com/maps/search/?api=1&query=Louis%20%26Michaelis%20Essen"
  },
  {
    "name": "RA Cara Schulden",
    "city": "Essen",
    "category": "lawyer",
    "nameable": false,
    "entity_type": "person",
    "lat": 51.4364461,
    "lng": 6.9995479,
    "url": "https://www.google.com/maps/search/?api=1&query=RA%20Cara%20Schulden%20Essen"
  },
  {
    "name": "D. Ernst, M. Filthaut - Rechtsanwälte u. Notare",
    "city": "Essen",
    "category": "lawyer",
    "nameable": true,
    "entity_type": "business",
    "lat": 51.4464424,
    "lng": 7.0758179,
    "url": "https://www.google.com/maps/search/?api=1&query=D.%20Ernst%2C%20M.%20Filthaut%20-%20Rechtsanw%C3%A4lte%20u.%20Notare%20Essen"
  },
  {
    "name": "Rechtsanwältin Martina Mark",
    "city": "Essen",
    "category": "lawyer",
    "nameable": false,
    "entity_type": "person",
    "lat": 51.4200443,
    "lng": 6.9984815,
    "url": "https://www.google.com/maps/search/?api=1&query=Rechtsanw%C3%A4ltin%20Martina%20Mark%20Essen"
  },
  {
    "name": "Kleineick & Leifke",
    "city": "Essen",
    "category": "lawyer",
    "nameable": false,
    "entity_type": "person",
    "lat": 51.4120823,
    "lng": 6.990013,
    "url": "https://www.google.com/maps/search/?api=1&query=Kleineick%20%26%20Leifke%20Essen"
  },
  {
    "name": "Anke Eymann Kapser",
    "city": "Essen",
    "category": "lawyer",
    "nameable": false,
    "entity_type": "person",
    "lat": 51.411946,
    "lng": 6.9890882,
    "url": "https://www.google.com/maps/search/?api=1&query=Anke%20Eymann%20Kapser%20Essen"
  },
  {
    "name": "Bürogemeinschaft des KanzleihausEssen",
    "city": "Essen",
    "category": "lawyer",
    "nameable": true,
    "entity_type": "business",
    "lat": 51.4349727,
    "lng": 6.9990976,
    "url": "https://www.google.com/maps/search/?api=1&query=B%C3%BCrogemeinschaft%20des%20KanzleihausEssen%20Essen"
  },
  {
    "name": "Luther.",
    "city": "Essen",
    "category": "lawyer",
    "nameable": true,
    "entity_type": "business",
    "lat": 51.4477142,
    "lng": 7.0142711,
    "url": "https://www.google.com/maps/search/?api=1&query=Luther.%20Essen"
  },
  {
    "name": "Rechtsanwälte Barteck",
    "city": "Essen",
    "category": "lawyer",
    "nameable": false,
    "entity_type": "person",
    "lat": 51.4466224,
    "lng": 7.0776552,
    "url": "https://www.google.com/maps/search/?api=1&query=Rechtsanw%C3%A4lte%20Barteck%20Essen"
  },
  {
    "name": "Kanzlei Dams",
    "city": "Essen",
    "category": "lawyer",
    "nameable": true,
    "entity_type": "business",
    "lat": 51.4467195,
    "lng": 7.0758913,
    "url": "https://www.google.com/maps/search/?api=1&query=Kanzlei%20Dams%20Essen"
  },
  {
    "name": "Rechtsanwältin Silke Vaupel",
    "city": "Essen",
    "category": "lawyer",
    "nameable": false,
    "entity_type": "person",
    "lat": 51.446717,
    "lng": 7.0758544,
    "url": "https://www.google.com/maps/search/?api=1&query=Rechtsanw%C3%A4ltin%20Silke%20Vaupel%20Essen"
  },
  {
    "name": "Freund&Partner - FJW",
    "city": "Essen",
    "category": "tax_advisor",
    "nameable": true,
    "entity_type": "business",
    "lat": 51.4471895,
    "lng": 7.0179529,
    "url": "https://www.google.com/maps/search/?api=1&query=Freund%26Partner%20-%20FJW%20Essen"
  },
  {
    "name": "Lohnsteuer Hilfeverein",
    "city": "Essen",
    "category": "tax_advisor",
    "nameable": false,
    "entity_type": "person",
    "lat": 51.4390653,
    "lng": 7.0117303,
    "url": "https://www.google.com/maps/search/?api=1&query=Lohnsteuer%20Hilfeverein%20Essen"
  },
  {
    "name": "Aktuell Lohnsteuerhilfeverein e.V. - Beratungsstelle Dennis Schönbeck",
    "city": "Essen",
    "category": "tax_advisor",
    "nameable": false,
    "entity_type": "person",
    "lat": 51.4416128,
    "lng": 7.010966,
    "url": "https://www.google.com/maps/search/?api=1&query=Aktuell%20Lohnsteuerhilfeverein%20e.V.%20-%20Beratungsstelle%20Dennis%20Sch%C3%B6nbeck%20Essen"
  },
  {
    "name": "Usinger",
    "city": "Essen",
    "category": "tax_advisor",
    "nameable": true,
    "entity_type": "business",
    "lat": 51.4386081,
    "lng": 7.0081963,
    "url": "https://www.google.com/maps/search/?api=1&query=Usinger%20Essen"
  },
  {
    "name": "Vereinigte Lohnsteuerhilfe e.V. VLH",
    "city": "Essen",
    "category": "tax_advisor",
    "nameable": false,
    "entity_type": "person",
    "lat": 51.403088,
    "lng": 7.0657897,
    "url": "https://www.google.com/maps/search/?api=1&query=Vereinigte%20Lohnsteuerhilfe%20e.V.%20VLH%20Essen"
  },