[
  {
    "name": "Your Smile",
    "city": "Frankfurt am Main",
    "category": "dentist",
    "nameable": false,
    "entity_type": "person",
    "lat": 50.0777187,
    "lng": 8.6281592,
    "url": "https://www.google.com/maps/search/?api=1&query=Your%20Smile%20Frankfurt%20am%20Main"
  },
  {
    "name": "Roland Preek",
    "city": "Frankfurt am Main",
    "category": "dentist",
    "nameable": false,
    "entity_type": "person",
    "lat": 50.1769272,
    "lng": 8.6295577,
    "url": "https://www.google.com/maps/search/?api=1&query=Roland%20Preek%20Frankfurt%20am%20Main"
  },
  {
    "name": "Drs. Sprenger",
    "city": "Frankfurt am Main",
    "category": "dentist",
    "nameable": false,
    "entity_type": "person",
    "lat": 50.2018391,
    "lng": 8.6744241,
    "url": "https://www.google.com/maps/search/?api=1&query=Drs.%20Sprenger%20Frankfurt%20am%20Main"
  },
  {
    "name": "El Sheikh",
    "city": "Frankfurt am Main",
    "category": "dentist",
    "nameable": false,
    "entity_type": "person",
    "lat": 50.1452813,
    "lng": 8.6831698,
    "url": "https://www.google.com/maps/search/?api=1&query=El%20Sheikh%20Frankfurt%20am%20Main"
  },
  {
    "name": "Zahnarztpraxis Torsten Lange",
    "city": "Frankfurt am Main",
    "category": "dentist",
    "nameable": false,
    "entity_type": "person",
    "lat": 50.1211196,
    "lng": 8.6209272,
    "url": "https://www.google.com/maps/search/?api=1&query=Zahnarztpraxis%20Torsten%20Lange%20Frankfurt%20am%20Main"
  },
  {
    "name": "Nicolic Dental",
    "city": "Frankfurt am Main",
    "category": "dentist",
    "nameable": true,
    "entity_type": "business",
    "lat": 50.1226946,
    "lng": 8.6442834,
    "url": "https://www.google.com/maps/search/?api=1&query=Nicolic%20Dental%20Frankfurt%20am%20Main"
  },
  {
    "name": "Zahnarztpraxis Zahngeist Eva Röhnert & Natalie Portas",
    "city": "Frankfurt am Main",
    "category": "dentist",
    "nameable": false,
    "entity_type": "person",
    "lat": 50.1483398,
    "lng": 8.6157706,
    "url": "https://www.google.com/maps/search/?api=1&query=Zahnarztpraxis%20Zahngeist%20Eva%20R%C3%B6hnert%20%26%20Natalie%20Portas%20Frankfurt%20am%20Main"
  },
  {
    "name": "Dressler, Johanna und Monika-Maria",
    "city": "Frankfurt am Main",
    "category": "dentist",
    "nameable": false,
    "entity_type": "person",
    "lat": 50.0975939,
    "lng": 8.5692507,
    "url": "https://www.google.com/maps/search/?api=1&query=Dressler%2C%20Johanna%20und%20Monika-Maria%20Frankfurt%20am%20Main"
  },
  {
    "name": "Leick & Leick Zahnheilkunde",
    "city": "Frankfurt am Main",
    "category": "dentist",
    "nameable": false,
    "entity_type": "person",
    "lat": 50.1007296,
    "lng": 8.5462342,
    "url": "https://www.google.com/maps/search/?api=1&query=Leick%20%26%20Leick%20Zahnheilkunde%20Frankfurt%20am%20Main"
  },
  {
    "name": "Rave Zahnarztpraxis",
    "city": "Frankfurt am Main",
    "category": "dentist",
    "nameable": true,
    "entity_type": "business",
    "lat": 50.1083802,
    "lng": 8.6482191,
    "url": "https://www.google.com/maps/search/?api=1&query=Rave%20Zahnarztpraxis%20Frankfurt%20am%20Main"
  },
  {
    "name": "Dr. Schüller",
    "city": "Frankfurt am Main",
    "category": "dentist",
    "nameable": false,
    "entity_type": "person",
    "lat": 50.1247087,
    "lng": 8.6100904,
    "url": "https://www.google.com/maps/search/?api=1&query=Dr.%20Sch%C3%BCller%20Frankfurt%20am%20Main"
  },
  {
    "name": "Zahnarztpraxis Dr. med. dent. Sven Weiler",
    "city": "Frankfurt am Main",
    "category": "dentist",
    "nameable": false,
    "entity_type": "person",
    "lat": 50.1156441,
    "lng": 8.6474053,
    "url": "https://www.google.com/maps/search/?api=1&query=Zahnarztpraxis%20Dr.%20med.%20dent.%20Sven%20Weiler%20Frankfurt%20am%20Main"
  },
  {
    "name": "Dr. Marcus Moghadam und Kollegen",
    "city": "Frankfurt am Main",
    "category": "dentist",
    "nameable": false,
    "entity_type": "person",
    "lat": 50.1203708,
    "lng": 8.6495986,
    "url": "https://www.google.com/maps/search/?api=1&query=Dr.%20Marcus%20Moghadam%20und%20Kollegen%20Frankfurt%20am%20Main"
  },
  {
    "name": "Praxis Dr. Arne Rostock",
    "city": "Frankfurt am Main",
    "category": "dentist",
    "nameable": false,
    "entity_type": "person",
    "lat": 50.109917,
    "lng": 8.6623577,
    "url": "https://www.google.com/maps/search/?api=1&query=Praxis%20Dr.%20Arne%20Rostock%20Frankfurt%20am%20Main"
  },
  {
    "name": "Dr. Pop",
    "city": "Frankfurt am Main",
    "category": "dentist",
    "nameable": false,
    "entity_type": "person",
    "lat": 50.1210076,
    "lng": 8.6485412,
    "url": "https://www.google.com/maps/search/?api=1&query=Dr.%20Pop%20Frankfurt%20am%20Main"
  },
  {
    "name": "Praxis für Zahnheilkunde",
    "city": "Frankfurt am Main",
    "category": "dentist",
    "nameable": true,
    "entity_type": "business",
    "lat": 50.1392933,
    "lng": 8.6988751,
    "url": "https://www.google.com/maps/search/?api=1&query=Praxis%20f%C3%BCr%20Zahnheilkunde%20Frankfurt%20am%20Main"
  },
  {
    "name": "Dr. Thomas Ulbrich & Stefan Ulbrich",
    "city": "Frankfurt am Main",
    "category": "dentist",
    "nameable": false,
    "entity_type": "person",
    "lat": 50.1012058,
    "lng": 8.5463468,
    "url": "https://www.google.com/maps/search/?api=1&query=Dr.%20Thomas%20Ulbrich%20%26%20Stefan%20Ulbrich%20Frankfurt%20am%20Main"
  },
  {
    "name": "Zahnarztpraxis Europa-Allee",
    "city": "Frankfurt am Main",
    "category": "dentist",
    "nameable": false,
    "entity_type": "person",
    "lat": 50.1079601,
    "lng": 8.6246606,
    "url": "https://www.google.com/maps/search/?api=1&query=Zahnarztpraxis%20Europa-Allee%20Frankfurt%20am%20Main"
  },
  {
    "name": "P. Tomovic",
    "city": "Frankfurt am Main",
    "category": "dentist",
    "nameable": false,
    "entity_type": "person",
    "lat": 50.111885,
    "lng": 8.6592897,
    "url": "https://www.google.com/maps/search/?api=1&query=P.%20Tomovic%20Frankfurt%20am%20Main"
  },
  {
    "name": "Zahnarztpraxis Dr. Dittrich",
    "city": "Frankfurt am Main",
    "category": "dentist",
    "nameable": false,
    "entity_type": "person",
    "lat": 50.1080354,
    "lng": 8.6407179,
    "url": "https://www.google.com/maps/search/?api=1&query=Zahnarztpraxis%20Dr.%20Dittrich%20Frankfurt%20am%20Main"
  },
  {
    "name": "Zahnarzt Van Cuong Dang",
    "city": "Frankfurt am Main",
    "category": "dentist",
    "nameable": false,
    "entity_type": "person",
    "lat": 50.1308884,
    "lng": 8.6761265,
    "url": "https://www.google.com/maps/search/?api=1&query=Zahnarzt%20Van%20Cuong%20Dang%20Frankfurt%20am%20Main"
  },
  {
    "name": "mydent Zahnärzte",
    "city": "Frankfurt am Main",
    "category": "dentist",
    "nameable": true,
    "entity_type": "business",
    "lat": 50.1030326,
    "lng": 8.6419139,
    "url": "https://www.google.com/maps/search/?api=1&query=mydent%20Zahn%C3%A4rzte%20Frankfurt%20am%20Main"
  },
  {
    "name": "Britta Grunert",
    "city": "Frankfurt am Main",
    "category": "dentist",
    "nameable": false,
    "entity_type": "person",
    "lat": 50.1186628,
    "lng": 8.6444847,
    "url": "https://www.google.com/maps/search/?api=1&query=Britta%20Grunert%20Frankfurt%20am%20Main"
  },
  {
    "name": "Dr. Bernd Schöneich & Kollegen",
    "city": "Frankfurt am Main",
    "category": "dentist",
    "nameable": false,
    "entity_type": "person",
    "lat": 50.1202955,
    "lng": 8.6796155,
    "url": "https://www.google.com/maps/search/?api=1&query=Dr.%20Bernd%20Sch%C3%B6neich%20%26%20Kollegen%20Frankfurt%20am%20Main"
  },
  {
    "name": "Zahnzentrum Frankfurter Bogen",
    "city": "Frankfurt am Main",
    "category": "dentist",
    "nameable": false,
    "entity_type": "person",
    "lat": 50.1564902,
    "lng": 8.6977459,
    "url": "https://www.google.com/maps/search/?api=1&query=Zahnzentrum%20Frankfurter%20Bogen%20Frankfurt%20am%20Main"
  },
  {
    "name": "Dr. Kinner",
    "city": "Frankfurt am Main",
    "category": "dentist",
    "nameable": false,
    "entity_type": "person",
    "lat": 50.0970022,
    "lng": 8.6727861,
    "url": "https://www.google.com/maps/search/?api=1&query=Dr.%20Kinner%20Frankfurt%20am%20Main"
  },
  {
    "name": "Zahnarzt Juan Rivera Cruces",
    "city": "Frankfurt am Main",
    "category": "dentist",
    "nameable": false,
    "entity_type": "person",
    "lat": 50.0916684,
    "lng": 8.6081767,
    "url": "https://www.google.com/maps/search/?api=1&query=Zahnarzt%20Juan%20Rivera%20Cruces%20Frankfurt%20am%20Main"
  },
  {
    "name": "Zahnarztpraxis Galina Pic",
    "city": "Frankfurt am Main",
    "category": "dentist",
    "nameable": false,
    "entity_type": "person",
    "lat": 50.1376509,
    "lng": 8.6242238,
    "url": "https://www.google.com/maps/search/?api=1&query=Zahnarztpraxis%20Galina%20Pic%20Frankfurt%20am%20Main"
  },
  {
    "name": "Dr. Töpfer",
    "city": "Frankfurt am Main",
    "category": "dentist",
    "nameable": false,
    "entity_type": "person",
    "lat": 50.1237744,
    "lng": 8.6480492,
    "url": "https://www.google.com/maps/search/?api=1&query=Dr.%20T%C3%B6pfer%20Frankfurt%20am%20Main"
  },
  {
    "name": "Dr. Karl Erb und Stephan Arning-Erb",
    "city": "Frankfurt am Main",
    "category": "dentist",
    "nameable": false,
    "entity_type": "person",
    "lat": 50.0845188,
    "lng": 8.6458028,
    "url": "https://www.google.com/maps/search/?api=1&query=Dr.%20Karl%20Erb%20und%20Stephan%20Arning-Erb%20Frankfurt%20am%20Main"
  },
  {
    "name": "Cornelia Arning",
    "city": "Frankfurt am Main",
    "category": "dentist",
    "nameable": false,
    "entity_type": "person",
    "lat": 50.0798244,
    "lng": 8.6472076,
    "url": "https://www.google.com/maps/search/?api=1&query=Cornelia%20Arning%20Frankfurt%20am%20Main"
  },
  {
    "name": "artodontics",
    "city": "Frankfurt am Main",
    "category": "dentist",
    "nameable": true,
    "entity_type": "business",
    "lat": 50.1079893,
    "lng": 8.6253725,
    "url": "https://www.google.com/maps/search/?api=1&query=artodontics%20Frankfurt%20am%20Main"
  },
  {
    "name": "dental centrum nordwest",
    "city": "Frankfurt am Main",
    "category": "dentist",
    "nameable": true,
    "entity_type": "business",
    "lat": 50.1503633,
    "lng": 8.6165582,
    "url": "https://www.google.com/maps/search/?api=1&query=dental%20centrum%20nordwest%20Frankfurt%20am%20Main"
  },
  {
    "name": "Daniel Stork Zahnarzt",
    "city": "Frankfurt am Main",
    "category": "dentist",
    "nameable": false,
    "entity_type": "person",
    "lat": 50.1131877,
    "lng": 8.7010341,
    "url": "https://www.google.com/maps/search/?api=1&query=Daniel%20Stork%20Zahnarzt%20Frankfurt%20am%20Main"
  },
  {
    "name": "Edel Weiss Zahnarzt Praxis",
    "city": "Frankfurt am Main",
    "category": "dentist",
    "nameable": false,
    "entity_type": "person",
    "lat": 50.0946997,
    "lng": 8.6699782,
    "url": "https://www.google.com/maps/search/?api=1&query=Edel%20Weiss%20Zahnarzt%20Praxis%20Frankfurt%20am%20Main"
  },
  {
    "name": "Zahnärztliche Gemeinschaftspraxis Hildeghety-Kenzel",
    "city": "Frankfurt am Main",
    "category": "dentist",
    "nameable": true,
    "entity_type": "business",
    "lat": 50.0945661,
    "lng": 8.6697134,
    "url": "https://www.google.com/maps/search/?api=1&query=Zahn%C3%A4rztliche%20Gemeinschaftspraxis%20Hildeghety-Kenzel%20Frankfurt%20am%20Main"
  },
  {
    "name": "Dr Pawlenka",
    "city": "Frankfurt am Main",
    "category": "dentist",
    "nameable": false,
    "entity_type": "person",
    "lat": 50.1214841,
    "lng": 8.6725545,
    "url": "https://www.google.com/maps/search/?api=1&query=Dr%20Pawlenka%20Frankfurt%20am%20Main"
  },
  {
    "name": "Dr. Adriana Weiss",
    "city": "Frankfurt am Main",
    "category": "dentist",
    "nameable": false,
    "entity_type": "person",
    "lat": 50.1393207,
    "lng": 8.6989004,
    "url": "https://www.google.com/maps/search/?api=1&query=Dr.%20Adriana%20Weiss%20Frankfurt%20am%20Main"
  },
  {
    "name": "Nana Azarev",
    "city": "Frankfurt am Main",
    "category": "dentist",
    "nameable": false,
    "entity_type": "person",
    "lat": 50.1180262,
    "lng": 8.6605968,
    "url": "https://www.google.com/maps/search/?api=1&query=Nana%20Azarev%20Frankfurt%20am%20Main"
  },
  {
    "name": "Brüll",
    "city": "Frankfurt am Main",
    "category": "dentist",
    "nameable": true,
    "entity_type": "business",
    "lat": 50.115737,
    "lng": 8.6576364,
    "url": "https://www.google.com/maps/search/?api=1&query=Br%C3%BCll%20Frankfurt%20am%20Main"
  },
  {
    "name": "Heike Emmrich",
    "city": "Frankfurt am Main",
    "category": "dentist",
    "nameable": false,
    "entity_type": "person",
    "lat": 50.1208253,
    "lng": 8.6995002,
    "url": "https://www.google.com/maps/search/?api=1&query=Heike%20Emmrich%20Frankfurt%20am%20Main"
  },
  {
    "name": "Joanna K. Vorhauser",
    "city": "Frankfurt am Main",
    "category": "dentist",
    "nameable": false,
    "entity_type": "person",
    "lat": 50.1160212,
    "lng": 8.6961164,
    "url": "https://www.google.com/maps/search/?api=1&query=Joanna%20K.%20Vorhauser%20Frankfurt%20am%20Main"
  },
  {
    "name": "Zahnarztpraxis Dr. med. Michael Wittmiß",
    "city": "Frankfurt am Main",
    "category": "dentist",
    "nameable": false,
    "entity_type": "person",
    "lat": 50.1277275,
    "lng": 8.6406558,
    "url": "https://www.google.com/maps/search/?api=1&query=Zahnarztpraxis%20Dr.%20med.%20Michael%20Wittmi%C3%9F%20Frankfurt%20am%20Main"
  },
  {
    "name": "Spielberger",
    "city": "Frankfurt am Main",
    "category": "dentist",
    "nameable": true,
    "entity_type": "business",
    "lat": 50.1131616,
    "lng": 8.677955,
    "url": "https://www.google.com/maps/search/?api=1&query=Spielberger%20Frankfurt%20am%20Main"
  },
  {
    "name": "Mandsjak Zahnmedizin",
    "city": "Frankfurt am Main",
    "category": "dentist",
    "nameable": false,
    "entity_type": "person",
    "lat": 50.1127021,
    "lng": 8.7053545,
    "url": "https://www.google.com/maps/search/?api=1&query=Mandsjak%20Zahnmedizin%20Frankfurt%20am%20Main"
  },
  {
    "name": "Maulartisten (Linsenhoff + Poganiuch)",
    "city": "Frankfurt am Main",
    "category": "dentist",
    "nameable": false,
    "entity_type": "person",
    "lat": 50.1258317,
    "lng": 8.6116478,
    "url": "https://www.google.com/maps/search/?api=1&query=Maulartisten%20(Linsenhoff%20%2B%20Poganiuch)%20Frankfurt%20am%20Main"
  },
  {
    "name": "B. Bäumchen",
    "city": "Frankfurt am Main",
    "category": "dentist",
    "nameable": false,
    "entity_type": "person",
    "lat": 50.0921664,
    "lng": 8.5004831,
    "url": "https://www.google.com/maps/search/?api=1&query=B.%20B%C3%A4umchen%20Frankfurt%20am%20Main"
  },
  {
    "name": "Evrianthi Vassiliou",
    "city": "Frankfurt am Main",
    "category": "dentist",
    "nameable": false,
    "entity_type": "person",
    "lat": 50.0937295,
    "lng": 8.4947227,
    "url": "https://www.google.com/maps/search/?api=1&query=Evrianthi%20Vassiliou%20Frankfurt%20am%20Main"
  },
  {
    "name": "Zahnärzte Dr. Wachsmann",
    "city": "Frankfurt am Main",
    "category": "dentist",
    "nameable": false,
    "entity_type": "person",
    "lat": 50.0997218,
    "lng": 8.6820481,
    "url": "https://www.google.com/maps/search/?api=1&query=Zahn%C3%A4rzte%20Dr.%20Wachsmann%20Frankfurt%20am%20Main"
  },
  {
    "name": "Zahnarztpraxis Elisabeth Detko-Kassem",
    "city": "Frankfurt am Main",
    "category": "dentist",
    "nameable": false,
    "entity_type": "person",
    "lat": 50.1629878,
    "lng": 8.6266096,
    "url": "https://www.google.com/maps/search/?api=1&query=Zahnarztpraxis%20Elisabeth%20Detko-Kassem%20Frankfurt%20am%20Main"
  },
  {
    "name": "Dr. Axel Pfeifer",
    "city": "Frankfurt am Main",
    "category": "dentist",
    "nameable": false,
    "entity_type": "person",
    "lat": 50.1138179,
    "lng": 8.6740259,
    "url": "https://www.google.com/maps/search/?api=1&query=Dr.%20Axel%20Pfeifer%20Frankfurt%20am%20Main"
  },
  {
    "name": "Dr. med. dent. Ernst Puchta",
    "city": "Frankfurt am Main",
    "category": "dentist",
    "nameable": false,
    "entity_type": "person",
    "lat": 50.0953014,
    "lng": 8.4887115,
    "url": "https://www.google.com/maps/search/?api=1&query=Dr.%20med.%20dent.%20Ernst%20Puchta%20Frankfurt%20am%20Main"
  },
  {
    "name": "Dr. Cornelia Pulina",
    "city": "Frankfurt am Main",
    "category": "dentist",
    "nameable": false,
    "entity_type": "person",
    "lat": 50.1559429,
    "lng": 8.6585408,
    "url": "https://www.google.com/maps/search/?api=1&query=Dr.%20Cornelia%20Pulina%20Frankfurt%20am%20Main"
  },
  {
    "name": "Hospitadent Frankfurt",
    "city": "Frankfurt am Main",
    "category": "dentist",
    "nameable": true,
    "entity_type": "business",
    "lat": 50.1055281,
    "lng": 8.6701222,
    "url": "https://www.google.com/maps/search/?api=1&query=Hospitadent%20Frankfurt%20Frankfurt%20am%20Main"
  },
  {
    "name": "Ph.D. Can & Kollegen",
    "city": "Frankfurt am Main",
    "category": "dentist",
    "nameable": true,
    "entity_type": "business",
    "lat": 50.1054912,
    "lng": 8.6701865,
    "url": "https://www.google.com/maps/search/?api=1&query=Ph.D.%20Can%20%26%20Kollegen%20Frankfurt%20am%20Main"
  },
  {
    "name": "Nirgül Pekcan",
    "city": "Frankfurt am Main",
    "category": "dentist",
    "nameable": false,
    "entity_type": "person",
    "lat": 50.1006645,
    "lng": 8.7246268,
    "url": "https://www.google.com/maps/search/?api=1&query=Nirg%C3%BCl%20Pekcan%20Frankfurt%20am%20Main"
  },
  {
    "name": "Dr. Jan Karnstedt",
    "city": "Frankfurt am Main",
    "category": "dentist",
    "nameable": false,
    "entity_type": "person",
    "lat": 50.1194481,
    "lng": 8.6687734,
    "url": "https://www.google.com/maps/search/?api=1&query=Dr.%20Jan%20Karnstedt%20Frankfurt%20am%20Main"
  },
  {
    "name": "Zahnärzte am Bolongaropalast",
    "city": "Frankfurt am Main",
    "category": "dentist",
    "nameable": true,
    "entity_type": "business",
    "lat": 50.1017184,
    "lng": 8.5526757,
    "url": "https://www.google.com/maps/search/?api=1&query=Zahn%C3%A4rzte%20am%20Bolongaropalast%20Frankfurt%20am%20Main"
  },
  {
    "name": "Thorn Zahnmedizin",
    "city": "Frankfurt am Main",
    "category": "dentist",
    "nameable": false,
    "entity_type": "person",
    "lat": 50.0947582,
    "lng": 8.6819928,
    "url": "https://www.google.com/maps/search/?api=1&query=Thorn%20Zahnmedizin%20Frankfurt%20am%20Main"
  },
  {
    "name": "Dr.(Univ.Kabul) Shekiba Rahim",
    "city": "Frankfurt am Main",
    "category": "dentist",
    "nameable": false,
    "entity_type": "person",
    "lat": 50.104908,
    "lng": 8.6416441,
    "url": "https://www.google.com/maps/search/?api=1&query=Dr.(Univ.Kabul)%20Shekiba%20Rahim%20Frankfurt%20am%20Main"
  },
  {
    "name": "Dr. med. dent. Alexander Schreher",
    "city": "Frankfurt am Main",
    "category": "dentist",
    "nameable": false,
    "entity_type": "person",
    "lat": 50.104451,
    "lng": 8.6374172,
    "url": "https://www.google.com/maps/search/?api=1&query=Dr.%20med.%20dent.%20Alexander%20Schreher%20Frankfurt%20am%20Main"
  },
  {
    "name": "Dr. Andrea Kabel & Dr. Katja Houshami",
    "city": "Frankfurt am Main",
    "category": "dentist",
    "nameable": false,
    "entity_type": "person",
    "lat": 50.0874632,
    "lng": 8.5115995,
    "url": "https://www.google.com/maps/search/?api=1&query=Dr.%20Andrea%20Kabel%20%26%20Dr.%20Katja%20Houshami%20Frankfurt%20am%20Main"
  },
  {
    "name": "MVZ Zahnärzte Bockenheim",
    "city": "Frankfurt am Main",
    "category": "dentist",
    "nameable": false,
    "entity_type": "person",
    "lat": 50.1261352,
    "lng": 8.6445862,
    "url": "https://www.google.com/maps/search/?api=1&query=MVZ%20Zahn%C3%A4rzte%20Bockenheim%20Frankfurt%20am%20Main"
  },
  {
    "name": "Helga Dönges",
    "city": "Frankfurt am Main",
    "category": "dentist",
    "nameable": false,
    "entity_type": "person",
    "lat": 50.1023895,
    "lng": 8.6823509,
    "url": "https://www.google.com/maps/search/?api=1&query=Helga%20D%C3%B6nges%20Frankfurt%20am%20Main"
  },
  {
    "name": "Praxis Dr. Leopold Fleischmann",
    "city": "Frankfurt am Main",
    "category": "dentist",
    "nameable": false,
    "entity_type": "person",
    "lat": 50.102678,
    "lng": 8.6443486,
    "url": "https://www.google.com/maps/search/?api=1&query=Praxis%20Dr.%20Leopold%20Fleischmann%20Frankfurt%20am%20Main"
  },
  {
    "name": "Dr.med.dent. Smaranda Müller",
    "city": "Frankfurt am Main",
    "category": "dentist",
    "nameable": false,
    "entity_type": "person",
    "lat": 50.09069,
    "lng": 8.6073994,
    "url": "https://www.google.com/maps/search/?api=1&query=Dr.med.dent.%20Smaranda%20M%C3%BCller%20Frankfurt%20am%20Main"
  },
  {
    "name": "Zahnärzte für Kieferorthopädie, Dr. Tina Hutter & Dr. Eva Maria Hauf",
    "city": "Frankfurt am Main",
    "category": "dentist",
    "nameable": false,
    "entity_type": "person",
    "lat": 50.1185821,
    "lng": 8.6770361,
    "url": "https://www.google.com/maps/search/?api=1&query=Zahn%C3%A4rzte%20f%C3%BCr%20Kieferorthop%C3%A4die%2C%20Dr.%20Tina%20Hutter%20%26%20Dr.%20Eva%20Maria%20Hauf%20Frankfurt%20am%20Main"
  },
  {
    "name": "Ramin Amirsiai",
    "city": "Frankfurt am Main",
    "category": "dentist",
    "nameable": false,
    "entity_type": "person",
    "lat": 50.1244465,
    "lng": 8.7660752,
    "url": "https://www.google.com/maps/search/?api=1&query=Ramin%20Amirsiai%20Frankfurt%20am%20Main"
  },
  {
    "name": "Zahnarztpraxis Dr. Buschbeck de Bascopé & Kollegen",
    "city": "Frankfurt am Main",
    "category": "dentist",
    "nameable": false,
    "entity_type": "person",
    "lat": 50.1036631,
    "lng": 8.6799562,
    "url": "https://www.google.com/maps/search/?api=1&query=Zahnarztpraxis%20Dr.%20Buschbeck%20de%20Bascop%C3%A9%20%26%20Kollegen%20Frankfurt%20am%20Main"
  },
  {
    "name": "Dr. Dobbertin",
    "city": "Frankfurt am Main",
    "category": "dentist",
    "nameable": false,
    "entity_type": "person",
    "lat": 50.1209152,
    "lng": 8.676097,
    "url": "https://www.google.com/maps/search/?api=1&query=Dr.%20Dobbertin%20Frankfurt%20am%20Main"
  },
  {
    "name": "Irina-Nicolle Cosma Zahnärztin",
    "city": "Frankfurt am Main",
    "category": "dentist",
    "nameable": false,
    "entity_type": "person",
    "lat": 50.1388367,
    "lng": 8.6477116,
    "url": "https://www.google.com/maps/search/?api=1&query=Irina-Nicolle%20Cosma%20Zahn%C3%A4rztin%20Frankfurt%20am%20Main"
  },
  {
    "name": "Dr. med. dent. Thomas Blei",
    "city": "Frankfurt am Main",
    "category": "dentist",
    "nameable": false,
    "entity_type": "person",
    "lat": 50.1381618,
    "lng": 8.6522501,
    "url": "https://www.google.com/maps/search/?api=1&query=Dr.%20med.%20dent.%20Thomas%20Blei%20Frankfurt%20am%20Main"
  },
  {
    "name": "David-John Church und Ulrike Frommator",
    "city": "Frankfurt am Main",
    "category": "dentist",
    "nameable": false,
    "entity_type": "person",
    "lat": 50.138549,
    "lng": 8.6461606,
    "url": "https://www.google.com/maps/search/?api=1&query=David-John%20Church%20und%20Ulrike%20Frommator%20Frankfurt%20am%20Main"
  },
  {
    "name": "Zahnarztpraxis Med. Dent. Mirways Popal",
    "city": "Frankfurt am Main",
    "category": "dentist",
    "nameable": false,
    "entity_type": "person",
    "lat": 50.147702,
    "lng": 8.6561338,
    "url": "https://www.google.com/maps/search/?api=1&query=Zahnarztpraxis%20Med.%20Dent.%20Mirways%20Popal%20Frankfurt%20am%20Main"
  },
  {
    "name": "Dr. Larisa Popovic",
    "city": "Frankfurt am Main",
    "category": "dentist",
    "nameable": false,
    "entity_type": "person",
    "lat": 50.1473846,
    "lng": 8.6617041,
    "url": "https://www.google.com/maps/search/?api=1&query=Dr.%20Larisa%20Popovic%20Frankfurt%20am%20Main"
  },
  {
    "name": "Dr. med. dent. Jürgen Schultz",
    "city": "Frankfurt am Main",
    "category": "dentist",
    "nameable": false,
    "entity_type": "person",
    "lat": 50.1502688,
    "lng": 8.6616671,
    "url": "https://www.google.com/maps/search/?api=1&query=Dr.%20med.%20dent.%20J%C3%BCrgen%20Schultz%20Frankfurt%20am%20Main"
  },
  {
    "name": "Barbara Mounzer",
    "city": "Frankfurt am Main",
    "category": "dentist",
    "nameable": false,
    "entity_type": "person",
    "lat": 50.1303221,
    "lng": 8.736966,
    "url": "https://www.google.com/maps/search/?api=1&query=Barbara%20Mounzer%20Frankfurt%20am%20Main"
  },
  {
    "name": "Dr. Rüdiger Parnt",
    "city": "Frankfurt am Main",
    "category": "dentist",
    "nameable": false,
    "entity_type": "person",
    "lat": 50.0982338,
    "lng": 8.7317798,
    "url": "https://www.google.com/maps/search/?api=1&query=Dr.%20R%C3%BCdiger%20Parnt%20Frankfurt%20am%20Main"
  },
  {
    "name": "Zahnarzt Westend Dr. Theissen Dr. Adelmann",
    "city": "Frankfurt am Main",
    "category": "dentist",
    "nameable": false,
    "entity_type": "person",
    "lat": 50.1165348,
    "lng": 8.6587226,
    "url": "https://www.google.com/maps/search/?api=1&query=Zahnarzt%20Westend%20Dr.%20Theissen%20Dr.%20Adelmann%20Frankfurt%20am%20Main"
  },
  {
    "name": "Brilliant Zahnmedizin",
    "city": "Frankfurt am Main",
    "category": "dentist",
    "nameable": false,
    "entity_type": "person",
    "lat": 50.0866569,
    "lng": 8.6463397,
    "url": "https://www.google.com/maps/search/?api=1&query=Brilliant%20Zahnmedizin%20Frankfurt%20am%20Main"
  },
  {
    "name": "Mobin Dental",
    "city": "Frankfurt am Main",
    "category": "dentist",
    "nameable": true,
    "entity_type": "business",
    "lat": 50.0845742,
    "lng": 8.6468805,
    "url": "https://www.google.com/maps/search/?api=1&query=Mobin%20Dental%20Frankfurt%20am%20Main"
  },
  {
    "name": "Zahnarztpraxis im Nordend",
    "city": "Frankfurt am Main",
    "category": "dentist",
    "nameable": true,
    "entity_type": "business",
    "lat": 50.1281101,
    "lng": 8.6819974,
    "url": "https://www.google.com/maps/search/?api=1&query=Zahnarztpraxis%20im%20Nordend%20Frankfurt%20am%20Main"
  },
  {
    "name": "Zahnarztpraxis Dr. Dirk Schmidt",
    "city": "Frankfurt am Main",
    "category": "dentist",
    "nameable": false,
    "entity_type": "person",
    "lat": 50.1142468,
    "lng": 8.6840326,
    "url": "https://www.google.com/maps/search/?api=1&query=Zahnarztpraxis%20Dr.%20Dirk%20Schmidt%20Frankfurt%20am%20Main"
  },
  {
    "name": "Dr. med. dent. J. Wyrobnik",
    "city": "Frankfurt am Main",
    "category": "dentist",
    "nameable": false,
    "entity_type": "person",
    "lat": 50.1658895,
    "lng": 8.6220703,
    "url": "https://www.google.com/maps/search/?api=1&query=Dr.%20med.%20dent.%20J.%20Wyrobnik%20Frankfurt%20am%20Main"
  },
  {
    "name": "AllDent",
    "city": "Frankfurt am Main",
    "category": "dentist",
    "nameable": true,
    "entity_type": "business",
    "lat": 50.1116381,
    "lng": 8.6769823,
    "url": "https://www.google.com/maps/search/?api=1&query=AllDent%20Frankfurt%20am%20Main"
  },
  {
    "name": "Barbara Ceply",
    "city": "Frankfurt am Main",
    "category": "dentist",
    "nameable": false,
    "entity_type": "person",
    "lat": 50.0920215,
    "lng": 8.605301,
    "url": "https://www.google.com/maps/search/?api=1&query=Barbara%20Ceply%20Frankfurt%20am%20Main"
  },
  {
    "name": "Dr. Felix Bergschneider",
    "city": "Frankfurt am Main",
    "category": "dentist",
    "nameable": false,
    "entity_type": "person",
    "lat": 50.1127058,
    "lng": 8.7054341,
    "url": "https://www.google.com/maps/search/?api=1&query=Dr.%20Felix%20Bergschneider%20Frankfurt%20am%20Main"
  },
  {
    "name": "Zahnarztpraxis Dr. medic stom. Catalina Bocovan",
    "city": "Frankfurt am Main",
    "category": "dentist",
    "nameable": false,
    "entity_type": "person",
    "lat": 50.1577174,
    "lng": 8.6344117,
    "url": "https://www.google.com/maps/search/?api=1&query=Zahnarztpraxis%20Dr.%20medic%20stom.%20Catalina%20Bocovan%20Frankfurt%20am%20Main"
  },
  {
    "name": "Mirkhyl Dentalwelt",
    "city": "Frankfurt am Main",
    "category": "dentist",
    "nameable": false,
    "entity_type": "person",
    "lat": 50.1537752,
    "lng": 8.6911391,
    "url": "https://www.google.com/maps/search/?api=1&query=Mirkhyl%20Dentalwelt%20Frankfurt%20am%20Main"
  },
  {
    "name": "Praxis Anahita Sistani",
    "city": "Frankfurt am Main",
    "category": "dentist",
    "nameable": false,
    "entity_type": "person",
    "lat": 50.1526762,
    "lng": 8.6912826,
    "url": "https://www.google.com/maps/search/?api=1&query=Praxis%20Anahita%20Sistani%20Frankfurt%20am%20Main"
  },
  {
    "name": "Petre-Veropol",
    "city": "Frankfurt am Main",
    "category": "dentist",
    "nameable": true,
    "entity_type": "business",
    "lat": 50.1023817,
    "lng": 8.6423851,
    "url": "https://www.google.com/maps/search/?api=1&query=Petre-Veropol%20Frankfurt%20am%20Main"
  },
  {
    "name": "Zahnarztpraxis D.Alawi",
    "city": "Frankfurt am Main",
    "category": "dentist",
    "nameable": true,
    "entity_type": "business",
    "lat": 50.1274968,
    "lng": 8.7265457,
    "url": "https://www.google.com/maps/search/?api=1&query=Zahnarztpraxis%20D.Alawi%20Frankfurt%20am%20Main"
  },
  {
    "name": "Bajwa & Kollegen",
    "city": "Frankfurt am Main",
    "category": "dentist",
    "nameable": true,
    "entity_type": "business",
    "lat": 50.1129989,
    "lng": 8.6292491,
    "url": "https://www.google.com/maps/search/?api=1&query=Bajwa%20%26%20Kollegen%20Frankfurt%20am%20Main"
  },
  {
    "name": "Roshdent",
    "city": "Frankfurt am Main",
    "category": "dentist",
    "nameable": true,
    "entity_type": "business",
    "lat": 50.1024725,
    "lng": 8.6361058,
    "url": "https://www.google.com/maps/search/?api=1&query=Roshdent%20Frankfurt%20am%20Main"
  },
  {
    "name": "Purisic",
    "city": "Frankfurt am Main",
    "category": "dentist",
    "nameable": true,
    "entity_type": "business",
    "lat": 50.1024239,
    "lng": 8.6356084,
    "url": "https://www.google.com/maps/search/?api=1&query=Purisic%20Frankfurt%20am%20Main"
  },
  {
    "name": "Dr. Lucas Awiszus",
    "city": "Frankfurt am Main",
    "category": "dentist",
    "nameable": false,
    "entity_type": "person",
    "lat": 50.1206016,
    "lng": 8.7058012,
    "url": "https://www.google.com/maps/search/?api=1&query=Dr.%20Lucas%20Awiszus%20Frankfurt%20am%20Main"
  },
  {
    "name": "Dental Corner",
    "city": "Frankfurt am Main",
    "category": "dentist",
    "nameable": true,
    "entity_type": "business",
    "lat": 50.1168534,
    "lng": 8.6730925,
    "url": "https://www.google.com/maps/search/?api=1&query=Dental%20Corner%20Frankfurt%20am%20Main"
  },
  {
    "name": "Dr. Christine Kownatzki",
    "city": "Frankfurt am Main",
    "category": "dentist",
    "nameable": false,
    "entity_type": "person",
    "lat": 50.1213899,
    "lng": 8.6753876,
    "url": "https://www.google.com/maps/search/?api=1&query=Dr.%20Christine%20Kownatzki%20Frankfurt%20am%20Main"
  },
  {
    "name": "Brief, Josef Dr. Dr.",
    "city": "Frankfurt am Main",
    "category": "dentist",
    "nameable": false,
    "entity_type": "person",
    "lat": 50.1579692,
    "lng": 8.6341998,
    "url": "https://www.google.com/maps/search/?api=1&query=Brief%2C%20Josef%20Dr.%20Dr.%20Frankfurt%20am%20Main"
  },
  {
    "name": "Peter, Jan-Friedrich Dr. med. dent.",
    "city": "Frankfurt am Main",
    "category": "dentist",
    "nameable": false,
    "entity_type": "person",
    "lat": 50.1579932,
    "lng": 8.6343165,
    "url": "https://www.google.com/maps/search/?api=1&query=Peter%2C%20Jan-Friedrich%20Dr.%20med.%20dent.%20Frankfurt%20am%20Main"
  },
  {
    "name": "Mark Steinert",
    "city": "Frankfurt am Main",
    "category": "dentist",
    "nameable": false,
    "entity_type": "person",
    "lat": 50.1559421,
    "lng": 8.6567761,
    "url": "https://www.google.com/maps/search/?api=1&query=Mark%20Steinert%20Frankfurt%20am%20Main"
  },
  {
    "name": "Zahnarztpraxis Agnes d'Albon",
    "city": "Frankfurt am Main",
    "category": "dentist",
    "nameable": false,
    "entity_type": "person",
    "lat": 50.1630367,
    "lng": 8.619761,
    "url": "https://www.google.com/maps/search/?api=1&query=Zahnarztpraxis%20Agnes%20d'Albon%20Frankfurt%20am%20Main"
  },
  {
    "name": "Dr. Dominik Bergem und Kollegen",
    "city": "Frankfurt am Main",
    "category": "dentist",
    "nameable": false,
    "entity_type": "person",
    "lat": 50.1627977,
    "lng": 8.6188085,
    "url": "https://www.google.com/maps/search/?api=1&query=Dr.%20Dominik%20Bergem%20und%20Kollegen%20Frankfurt%20am%20Main"
  },
  {
    "name": "Dr. Kurosch Schafei",
    "city": "Frankfurt am Main",
    "category": "dentist",
    "nameable": false,
    "entity_type": "person",
    "lat": 50.1498112,
    "lng": 8.66382,
    "url": "https://www.google.com/maps/search/?api=1&query=Dr.%20Kurosch%20Schafei%20Frankfurt%20am%20Main"
  },
  {
    "name": "Dr. med dent. Martina Müller",
    "city": "Frankfurt am Main",
    "category": "dentist",
    "nameable": false,
    "entity_type": "person",
    "lat": 50.1388808,
    "lng": 8.7177273,
    "url": "https://www.google.com/maps/search/?api=1&query=Dr.%20med%20dent.%20Martina%20M%C3%BCller%20Frankfurt%20am%20Main"
  },
  {
    "name": "Ulf Krueger-Janson",
    "city": "Frankfurt am Main",
    "category": "dentist",
    "nameable": false,
    "entity_type": "person",
    "lat": 50.1312712,
    "lng": 8.6788104,
    "url": "https://www.google.com/maps/search/?api=1&query=Ulf%20Krueger-Janson%20Frankfurt%20am%20Main"
  },
  {
    "name": "Privatpraxis für Zahnheilkunde Dr. Heimann & Kollegen",
    "city": "Frankfurt am Main",
    "category": "dentist",
    "nameable": false,
    "entity_type": "person",
    "lat": 50.1209031,
    "lng": 8.6291572,
    "url": "https://www.google.com/maps/search/?api=1&query=Privatpraxis%20f%C3%BCr%20Zahnheilkunde%20Dr.%20Heimann%20%26%20Kollegen%20Frankfurt%20am%20Main"
  },
  {
    "name": "Zahnarzt Dr. Wüst",
    "city": "Frankfurt am Main",
    "category": "dentist",
    "nameable": false,
    "entity_type": "person",
    "lat": 50.1045753,
    "lng": 8.6821359,
    "url": "https://www.google.com/maps/search/?api=1&query=Zahnarzt%20Dr.%20W%C3%BCst%20Frankfurt%20am%20Main"
  },
  {
    "name": "Dr. Katja Jeschke",
    "city": "Frankfurt am Main",
    "category": "dentist",
    "nameable": false,
    "entity_type": "person",
    "lat": 50.1322287,
    "lng": 8.711017,
    "url": "https://www.google.com/maps/search/?api=1&query=Dr.%20Katja%20Jeschke%20Frankfurt%20am%20Main"
  },
  {
    "name": "Dr. Ahani",
    "city": "Frankfurt am Main",
    "category": "dentist",
    "nameable": false,
    "entity_type": "person",
    "lat": 50.1248137,
    "lng": 8.7142261,
    "url": "https://www.google.com/maps/search/?api=1&query=Dr.%20Ahani%20Frankfurt%20am%20Main"
  },
  {
    "name": "Dr. Christian Klarmann & Dr. Ernst-Adolf Stenger",
    "city": "Frankfurt am Main",
    "category": "dentist",
    "nameable": false,
    "entity_type": "person",
    "lat": 50.1274641,
    "lng": 8.7093138,
    "url": "https://www.google.com/maps/search/?api=1&query=Dr.%20Christian%20Klarmann%20%26%20Dr.%20Ernst-Adolf%20Stenger%20Frankfurt%20am%20Main"
  },
  {
    "name": "Pfau",
    "city": "Frankfurt am Main",
    "category": "dentist",
    "nameable": true,
    "entity_type": "business",
    "lat": 50.1582921,
    "lng": 8.6567175,
    "url": "https://www.google.com/maps/search/?api=1&query=Pfau%20Frankfurt%20am%20Main"
  },
  {
    "name": "Dr. Ralf E. Klaus",
    "city": "Frankfurt am Main",
    "category": "dentist",
    "nameable": false,
    "entity_type": "person",
    "lat": 50.105703,
    "lng": 8.7016137,
    "url": "https://www.google.com/maps/search/?api=1&query=Dr.%20Ralf%20E.%20Klaus%20Frankfurt%20am%20Main"
  },
  {
    "name": "Weis/Kolev/Urosevic",
    "city": "Frankfurt am Main",
    "category": "dentist",
    "nameable": false,
    "entity_type": "person",
    "lat": 50.1017062,
    "lng": 8.5431942,
    "url": "https://www.google.com/maps/search/?api=1&query=Weis%2FKolev%2FUrosevic%20Frankfurt%20am%20Main"
  },
  {
    "name": "Dr. Varnai/Dr. Denana",
    "city": "Frankfurt am Main",
    "category": "dentist",
    "nameable": false,
    "entity_type": "person",
    "lat": 50.1253578,
    "lng": 8.706082,
    "url": "https://www.google.com/maps/search/?api=1&query=Dr.%20Varnai%2FDr.%20Denana%20Frankfurt%20am%20Main"
  },
  {
    "name": "ZAHN.RAUM",
    "city": "Frankfurt am Main",
    "category": "dentist",
    "nameable": false,
    "entity_type": "person",
    "lat": 50.097764,
    "lng": 8.6944829,
    "url": "https://www.google.com/maps/search/?api=1&query=ZAHN.RAUM%20Frankfurt%20am%20Main"
  },
  {
    "name": "Konzept Weiss",
    "city": "Frankfurt am Main",
    "category": "dentist",
    "nameable": false,
    "entity_type": "person",
    "lat": 50.115248,
    "lng": 8.6500652,
    "url": "https://www.google.com/maps/search/?api=1&query=Konzept%20Weiss%20Frankfurt%20am%20Main"
  },
  {
    "name": "Kieferorthopädische Praxis Ulrike Lange",
    "city": "Frankfurt am Main",
    "category": "dentist",
    "nameable": false,
    "entity_type": "person",
    "lat": 50.1213218,
    "lng": 8.6160564,
    "url": "https://www.google.com/maps/search/?api=1&query=Kieferorthop%C3%A4dische%20Praxis%20Ulrike%20Lange%20Frankfurt%20am%20Main"
  },
  {
    "name": "Dr. Karina Tudor",
    "city": "Frankfurt am Main",
    "category": "dentist",
    "nameable": false,
    "entity_type": "person",
    "lat": 50.1258869,
    "lng": 8.7089047,
    "url": "https://www.google.com/maps/search/?api=1&query=Dr.%20Karina%20Tudor%20Frankfurt%20am%20Main"
  },
  {
    "name": "Dr. med. dent. Yeeun Kwon",
    "city": "Frankfurt am Main",
    "category": "dentist",
    "nameable": false,
    "entity_type": "person",
    "lat": 50.1189513,
    "lng": 8.656438,
    "url": "https://www.google.com/maps/search/?api=1&query=Dr.%20med.%20dent.%20Yeeun%20Kwon%20Frankfurt%20am%20Main"
  },
  {
    "name": "Milkyway",
    "city": "Frankfurt am Main",
    "category": "dentist",
    "nameable": true,
    "entity_type": "business",
    "lat": 50.1176559,
    "lng": 8.6586864,
    "url": "https://www.google.com/maps/search/?api=1&query=Milkyway%20Frankfurt%20am%20Main"
  },
  {
    "name": "Dr. med. dent Katharina Luise Vetter;Nicolas Mettenheimer",
    "city": "Frankfurt am Main",
    "category": "dentist",
    "nameable": false,
    "entity_type": "person",
    "lat": 50.1438361,
    "lng": 8.7264361,
    "url": "https://www.google.com/maps/search/?api=1&query=Dr.%20med.%20dent%20Katharina%20Luise%20Vetter%3BNicolas%20Mettenheimer%20Frankfurt%20am%20Main"
  },
  {
    "name": "Dr. Ernst",
    "city": "Frankfurt am Main",
    "category": "dentist",
    "nameable": false,
    "entity_type": "person",
    "lat": 50.1253452,
    "lng": 8.6879841,
    "url": "https://www.google.com/maps/search/?api=1&query=Dr.%20Ernst%20Frankfurt%20am%20Main"
  },
  {
    "name": "Zahnarztpraxis Dr. Stom. Naim Osmani",
    "city": "Frankfurt am Main",
    "category": "dentist",
    "nameable": false,
    "entity_type": "person",
    "lat": 50.1131088,
    "lng": 8.5410119,
    "url": "https://www.google.com/maps/search/?api=1&query=Zahnarztpraxis%20Dr.%20Stom.%20Naim%20Osmani%20Frankfurt%20am%20Main"
  },
  {
    "name": "Dr. med. dent. Serpil Perkovic & Nadja Ben Moussa",
    "city": "Frankfurt am Main",
    "category": "dentist",
    "nameable": false,
    "entity_type": "person",
    "lat": 50.1311142,
    "lng": 8.71417,
    "url": "https://www.google.com/maps/search/?api=1&query=Dr.%20med.%20dent.%20Serpil%20Perkovic%20%26%20Nadja%20Ben%20Moussa%20Frankfurt%20am%20Main"
  },
  {
    "name": "Dr. med. dent Peter Wüst, Aylin Wüst",
    "city": "Frankfurt am Main",
    "category": "dentist",
    "nameable": false,
    "entity_type": "person",
    "lat": 50.1302446,
    "lng": 8.7091424,
    "url": "https://www.google.com/maps/search/?api=1&query=Dr.%20med.%20dent%20Peter%20W%C3%BCst%2C%20Aylin%20W%C3%BCst%20Frankfurt%20am%20Main"
  },
  {
    "name": "Dr. Fay & Dr. Gilles",
    "city": "Frankfurt am Main",
    "category": "dentist",
    "nameable": false,
    "entity_type": "person",
    "lat": 50.1135455,
    "lng": 8.6780836,
    "url": "https://www.google.com/maps/search/?api=1&query=Dr.%20Fay%20%26%20Dr.%20Gilles%20Frankfurt%20am%20Main"
  },
  {
    "name": "guld Zahnärzte",
    "city": "Frankfurt am Main",
    "category": "dentist",
    "nameable": true,
    "entity_type": "business",
    "lat": 50.1168716,
    "lng": 8.6336032,
    "url": "https://www.google.com/maps/search/?api=1&query=guld%20Zahn%C3%A4rzte%20Frankfurt%20am%20Main"
  },
  {
    "name": "Main Zahnarzt Dr. K. Chamsiddin",
    "city": "Frankfurt am Main",
    "category": "dentist",
    "nameable": false,
    "entity_type": "person",
    "lat": 50.1231352,
    "lng": 8.6701495,
    "url": "https://www.google.com/maps/search/?api=1&query=Main%20Zahnarzt%20Dr.%20K.%20Chamsiddin%20Frankfurt%20am%20Main"
  },
  {
    "name": "Zahnarztpraxis am Reuterweg Dr. Wolfgang Kuhl ZÄ Kathrin Beinemann",
    "city": "Frankfurt am Main",
    "category": "dentist",
    "nameable": false,
    "entity_type": "person",
    "lat": 50.1206851,
    "lng": 8.6708161,
    "url": "https://www.google.com/maps/search/?api=1&query=Zahnarztpraxis%20am%20Reuterweg%20Dr.%20Wolfgang%20Kuhl%20Z%C3%84%20Kathrin%20Beinemann%20Frankfurt%20am%20Main"
  },
  {
    "name": "AP Dental Team",
    "city": "Frankfurt am Main",
    "category": "dentist",
    "nameable": true,
    "entity_type": "business",
    "lat": 50.10883,
    "lng": 8.6712898,
    "url": "https://www.google.com/maps/search/?api=1&query=AP%20Dental%20Team%20Frankfurt%20am%20Main"
  },
  {
    "name": "Daniel Kifle",
    "city": "Frankfurt am Main",
    "category": "dentist",
    "nameable": false,
    "entity_type": "person",
    "lat": 50.111159,
    "lng": 8.6755838,
    "url": "https://www.google.com/maps/search/?api=1&query=Daniel%20Kifle%20Frankfurt%20am%20Main"
  },
  {
    "name": "Denta Main",
    "city": "Frankfurt am Main",
    "category": "dentist",
    "nameable": false,
    "entity_type": "person",
    "lat": 50.1142524,
    "lng": 8.6782673,
    "url": "https://www.google.com/maps/search/?api=1&query=Denta%20Main%20Frankfurt%20am%20Main"
  },
  {
    "name": "Dr. med. dent. Diya Hout",
    "city": "Frankfurt am Main",
    "category": "dentist",
    "nameable": false,
    "entity_type": "person",
    "lat": 50.0816041,
    "lng": 8.6244724,
    "url": "https://www.google.com/maps/search/?api=1&query=Dr.%20med.%20dent.%20Diya%20Hout%20Frankfurt%20am%20Main"
  },
  {
    "name": "Dr. Marein  May",
    "city": "Frankfurt am Main",
    "category": "dentist",
    "nameable": false,
    "entity_type": "person",
    "lat": 50.1036448,
    "lng": 8.5460113,
    "url": "https://www.google.com/maps/search/?api=1&query=Dr.%20Marein%20%20May%20Frankfurt%20am%20Main"
  },
  {
    "name": "Haus 29A",
    "city": "Frankfurt am Main",
    "category": "dentist",
    "nameable": true,
    "entity_type": "business",
    "lat": 50.0946567,
    "lng": 8.6561764,
    "url": "https://www.google.com/maps/search/?api=1&query=Haus%2029A%20Frankfurt%20am%20Main"
  },
  {
    "name": "Dr. Uwe Grabbert",
    "city": "Frankfurt am Main",
    "category": "dentist",
    "nameable": false,
    "entity_type": "person",
    "lat": 50.1258885,
    "lng": 8.6459526,
    "url": "https://www.google.com/maps/search/?api=1&query=Dr.%20Uwe%20Grabbert%20Frankfurt%20am%20Main"
  },
  {
    "name": "Zahnärzte Dr.Chr.Oechsler & E.Grabova-Buchkowski",
    "city": "Frankfurt am Main",
    "category": "dentist",
    "nameable": false,
    "entity_type": "person",
    "lat": 50.0890754,
    "lng": 8.6707959,
    "url": "https://www.google.com/maps/search/?api=1&query=Zahn%C3%A4rzte%20Dr.Chr.Oechsler%20%26%20E.Grabova-Buchkowski%20Frankfurt%20am%20Main"
  },
  {
    "name": "Medidentist",
    "city": "Frankfurt am Main",
    "category": "dentist",
    "nameable": true,
    "entity_type": "business",
    "lat": 50.1680037,
    "lng": 8.6387072,
    "url": "https://www.google.com/maps/search/?api=1&query=Medidentist%20Frankfurt%20am%20Main"
  },
  {
    "name": "Jens Bühren und Alexandra Zubcov-Iwantscheff",
    "city": "Frankfurt am Main",
    "category": "doctors",
    "nameable": false,
    "entity_type": "person",
    "lat": 50.1444465,
    "lng": 8.6497167,
    "url": "https://www.google.com/maps/search/?api=1&query=Jens%20B%C3%BChren%20und%20Alexandra%20Zubcov-Iwantscheff%20Frankfurt%20am%20Main"
  },
  {
    "name": "Praxis am Marbachweg",
    "city": "Frankfurt am Main",
    "category": "doctors",
    "nameable": true,
    "entity_type": "business",
    "lat": 50.1415827,
    "lng": 8.6810468,
    "url": "https://www.google.com/maps/search/?api=1&query=Praxis%20am%20Marbachweg%20Frankfurt%20am%20Main"
  },
  {
    "name": "Ärztehaus Klink Maingau",
    "city": "Frankfurt am Main",
    "category": "doctors",
    "nameable": false,
    "entity_type": "person",
    "lat": 50.1193546,
    "lng": 8.6880575,
    "url": "https://www.google.com/maps/search/?api=1&query=%C3%84rztehaus%20Klink%20Maingau%20Frankfurt%20am%20Main"
  },
  {
    "name": "Ärztehaus Töngesgasse",
    "city": "Frankfurt am Main",
    "category": "doctors",
    "nameable": false,
    "entity_type": "person",
    "lat": 50.1135282,
    "lng": 8.6840085,
    "url": "https://www.google.com/maps/search/?api=1&query=%C3%84rztehaus%20T%C3%B6ngesgasse%20Frankfurt%20am%20Main"
  },
  {
    "name": "Verhaltenstherapie-Ambulanz",
    "city": "Frankfurt am Main",
    "category": "doctors",
    "nameable": true,
    "entity_type": "business",
    "lat": 50.1159264,
    "lng": 8.6476099,
    "url": "https://www.google.com/maps/search/?api=1&query=Verhaltenstherapie-Ambulanz%20Frankfurt%20am%20Main"
  },
  {
    "name": "Dr. Anette Heinz",
    "city": "Frankfurt am Main",
    "category": "doctors",
    "nameable": false,
    "entity_type": "person",
    "lat": 50.1199144,
    "lng": 8.6620379,
    "url": "https://www.google.com/maps/search/?api=1&query=Dr.%20Anette%20Heinz%20Frankfurt%20am%20Main"
  },
  {
    "name": "Dr. med. Brigitte Scharz",
    "city": "Frankfurt am Main",
    "category": "doctors",
    "nameable": false,
    "entity_type": "person",
    "lat": 50.0839377,
    "lng": 8.6388672,
    "url": "https://www.google.com/maps/search/?api=1&query=Dr.%20med.%20Brigitte%20Scharz%20Frankfurt%20am%20Main"
  },
  {
    "name": "Lang-Wiener",
    "city": "Frankfurt am Main",
    "category": "doctors",
    "nameable": true,
    "entity_type": "business",
    "lat": 50.1012253,
    "lng": 8.6601883,
    "url": "https://www.google.com/maps/search/?api=1&query=Lang-Wiener%20Frankfurt%20am%20Main"
  },
  {
    "name": "neo.HNO",
    "city": "Frankfurt am Main",
    "category": "doctors",
    "nameable": true,
    "entity_type": "business",
    "lat": 50.1572753,
    "lng": 8.6341234,
    "url": "https://www.google.com/maps/search/?api=1&query=neo.HNO%20Frankfurt%20am%20Main"
  },
  {
    "name": "Dr. M. Gascón, Dr. U. Baldus, Dr. J. Dippel Kinderärzte",
    "city": "Frankfurt am Main",
    "category": "doctors",
    "nameable": false,
    "entity_type": "person",
    "lat": 50.127599,
    "lng": 8.6818394,
    "url": "https://www.google.com/maps/search/?api=1&query=Dr.%20M.%20Gasc%C3%B3n%2C%20Dr.%20U.%20Baldus%2C%20Dr.%20J.%20Dippel%20Kinder%C3%A4rzte%20Frankfurt%20am%20Main"
  },
  {
    "name": "Allgemeinpraxis Dr. Scheuffele",
    "city": "Frankfurt am Main",
    "category": "doctors",
    "nameable": false,
    "entity_type": "person",
    "lat": 50.1379794,
    "lng": 8.6189994,
    "url": "https://www.google.com/maps/search/?api=1&query=Allgemeinpraxis%20Dr.%20Scheuffele%20Frankfurt%20am%20Main"
  },
  {
    "name": "Dr. Frömel Orthopäde",
    "city": "Frankfurt am Main",
    "category": "doctors",
    "nameable": false,
    "entity_type": "person",
    "lat": 50.1181468,
    "lng": 8.6618743,
    "url": "https://www.google.com/maps/search/?api=1&query=Dr.%20Fr%C3%B6mel%20Orthop%C3%A4de%20Frankfurt%20am%20Main"
  },
  {
    "name": "Praxis Dr. med Wolfgang Ripp Chirurgie, Unfall- und Sportarzt",
    "city": "Frankfurt am Main",
    "category": "doctors",
    "nameable": false,
    "entity_type": "person",
    "lat": 50.1390819,
    "lng": 8.6700062,
    "url": "https://www.google.com/maps/search/?api=1&query=Praxis%20Dr.%20med%20Wolfgang%20Ripp%20Chirurgie%2C%20Unfall-%20und%20Sportarzt%20Frankfurt%20am%20Main"
  },
  {
    "name": "Dr. med Michael Walter Orthopäde",
    "city": "Frankfurt am Main",
    "category": "doctors",
    "nameable": false,
    "entity_type": "person",
    "lat": 50.1367394,
    "lng": 8.646528,
    "url": "https://www.google.com/maps/search/?api=1&query=Dr.%20med%20Michael%20Walter%20Orthop%C3%A4de%20Frankfurt%20am%20Main"
  },
  {
    "name": "YUNDÉ aesthetic surgery",
    "city": "Frankfurt am Main",
    "category": "doctors",
    "nameable": true,
    "entity_type": "business",
    "lat": 50.1142486,
    "lng": 8.6840942,
    "url": "https://www.google.com/maps/search/?api=1&query=YUND%C3%89%20aesthetic%20surgery%20Frankfurt%20am%20Main"
  },
  {
    "name": "Dr. med. Jaqueline Jacobi",
    "city": "Frankfurt am Main",
    "category": "doctors",
    "nameable": false,
    "entity_type": "person",
    "lat": 50.1264279,
    "lng": 8.6087125,
    "url": "https://www.google.com/maps/search/?api=1&query=Dr.%20med.%20Jaqueline%20Jacobi%20Frankfurt%20am%20Main"
  },
  {
    "name": "Cermak/Dr.Gottfried Fachärztinnen für Kinderheilkunde",
    "city": "Frankfurt am Main",
    "category": "doctors",
    "nameable": false,
    "entity_type": "person",
    "lat": 50.149936,
    "lng": 8.615891,
    "url": "https://www.google.com/maps/search/?api=1&query=Cermak%2FDr.Gottfried%20Fach%C3%A4rztinnen%20f%C3%BCr%20Kinderheilkunde%20Frankfurt%20am%20Main"
  },
  {
    "name": "Urologisches Zentrum Dr. Michael Lotz",
    "city": "Frankfurt am Main",
    "category": "doctors",
    "nameable": false,
    "entity_type": "person",
    "lat": 50.1630189,
    "lng": 8.6264176,
    "url": "https://www.google.com/maps/search/?api=1&query=Urologisches%20Zentrum%20Dr.%20Michael%20Lotz%20Frankfurt%20am%20Main"
  },
  {
    "name": "Praxis Dr. Shaw Psychotherapie- & Psychologie-Praxis Frankfurt",
    "city": "Frankfurt am Main",
    "category": "doctors",
    "nameable": false,
    "entity_type": "person",
    "lat": 50.1157935,
    "lng": 8.6757255,
    "url": "https://www.google.com/maps/search/?api=1&query=Praxis%20Dr.%20Shaw%20Psychotherapie-%20%26%20Psychologie-Praxis%20Frankfurt%20Frankfurt%20am%20Main"
  },
  {
    "name": "Dr. Pryde/Dr. Damm",
    "city": "Frankfurt am Main",
    "category": "doctors",
    "nameable": false,
    "entity_type": "person",
    "lat": 50.1254054,
    "lng": 8.7061915,
    "url": "https://www.google.com/maps/search/?api=1&query=Dr.%20Pryde%2FDr.%20Damm%20Frankfurt%20am%20Main"
  },
  {
    "name": "Marschall, Dr. D.",
    "city": "Frankfurt am Main",
    "category": "doctors",
    "nameable": false,
    "entity_type": "person",
    "lat": 50.1681574,
    "lng": 8.692404,
    "url": "https://www.google.com/maps/search/?api=1&query=Marschall%2C%20Dr.%20D.%20Frankfurt%20am%20Main"
  },
  {
    "name": "Anna Gati Fabry",
    "city": "Frankfurt am Main",
    "category": "doctors",
    "nameable": false,
    "entity_type": "person",
    "lat": 50.1207437,
    "lng": 8.6746107,
    "url": "https://www.google.com/maps/search/?api=1&query=Anna%20Gati%20Fabry%20Frankfurt%20am%20Main"
  },
  {
    "name": "Dr. Stolz-Köberich",
    "city": "Frankfurt am Main",
    "category": "doctors",
    "nameable": false,
    "entity_type": "person",
    "lat": 50.1576344,
    "lng": 8.6540486,
    "url": "https://www.google.com/maps/search/?api=1&query=Dr.%20Stolz-K%C3%B6berich%20Frankfurt%20am%20Main"
  },
  {
    "name": "Augenarzt Dr. Lakos",
    "city": "Frankfurt am Main",
    "category": "doctors",
    "nameable": false,
    "entity_type": "person",
    "lat": 50.0849246,
    "lng": 8.647531,
    "url": "https://www.google.com/maps/search/?api=1&query=Augenarzt%20Dr.%20Lakos%20Frankfurt%20am%20Main"
  },
  {
    "name": "Brustzentrum am Opernplatz Frankfurt",
    "city": "Frankfurt am Main",
    "category": "doctors",
    "nameable": true,
    "entity_type": "business",
    "lat": 50.1171315,
    "lng": 8.6811277,
    "url": "https://www.google.com/maps/search/?api=1&query=Brustzentrum%20am%20Opernplatz%20Frankfurt%20Frankfurt%20am%20Main"
  },
  {
    "name": "Frauenärzte Hilpert, Ordu, Sabet",
    "city": "Frankfurt am Main",
    "category": "doctors",
    "nameable": false,
    "entity_type": "person",
    "lat": 50.1026591,
    "lng": 8.676627,
    "url": "https://www.google.com/maps/search/?api=1&query=Frauen%C3%A4rzte%20Hilpert%2C%20Ordu%2C%20Sabet%20Frankfurt%20am%20Main"
  },
  {
    "name": "Dr. med. Eva Rappen-Cremer",
    "city": "Frankfurt am Main",
    "category": "doctors",
    "nameable": false,
    "entity_type": "person",
    "lat": 50.118342,
    "lng": 8.644965,
    "url": "https://www.google.com/maps/search/?api=1&query=Dr.%20med.%20Eva%20Rappen-Cremer%20Frankfurt%20am%20Main"
  },
  {
    "name": "Deniz Onuk",
    "city": "Frankfurt am Main",
    "category": "doctors",
    "nameable": false,
    "entity_type": "person",
    "lat": 50.1547552,
    "lng": 8.6910689,
    "url": "https://www.google.com/maps/search/?api=1&query=Deniz%20Onuk%20Frankfurt%20am%20Main"
  },
  {
    "name": "Michaela Hubracht",
    "city": "Frankfurt am Main",
    "category": "doctors",
    "nameable": false,
    "entity_type": "person",
    "lat": 50.1017527,
    "lng": 8.6795868,
    "url": "https://www.google.com/maps/search/?api=1&query=Michaela%20Hubracht%20Frankfurt%20am%20Main"
  },
  {
    "name": "Dr. med. Julia Seiler",
    "city": "Frankfurt am Main",
    "category": "doctors",
    "nameable": false,
    "entity_type": "person",
    "lat": 50.1188701,
    "lng": 8.665224,
    "url": "https://www.google.com/maps/search/?api=1&query=Dr.%20med.%20Julia%20Seiler%20Frankfurt%20am%20Main"
  },
  {
    "name": "Radiomedicum Gemeinschaftspraxis für Radiologie und Nuklearmedizin",
    "city": "Frankfurt am Main",
    "category": "doctors",
    "nameable": true,
    "entity_type": "business",
    "lat": 50.1052819,
    "lng": 8.6508248,
    "url": "https://www.google.com/maps/search/?api=1&query=Radiomedicum%20Gemeinschaftspraxis%20f%C3%BCr%20Radiologie%20und%20Nuklearmedizin%20Frankfurt%20am%20Main"
  },
  {
    "name": "Dr. med. Bushoven",
    "city": "Frankfurt am Main",
    "category": "doctors",
    "nameable": false,
    "entity_type": "person",
    "lat": 50.0886466,
    "lng": 8.6501134,
    "url": "https://www.google.com/maps/search/?api=1&query=Dr.%20med.%20Bushoven%20Frankfurt%20am%20Main"
  },
  {
    "name": "Orthopädicum",
    "city": "Frankfurt am Main",
    "category": "doctors",
    "nameable": true,
    "entity_type": "business",
    "lat": 50.1184091,
    "lng": 8.6799948,
    "url": "https://www.google.com/maps/search/?api=1&query=Orthop%C3%A4dicum%20Frankfurt%20am%20Main"
  },
  {
    "name": "Dr. Hegner",
    "city": "Frankfurt am Main",
    "category": "doctors",
    "nameable": false,
    "entity_type": "person",
    "lat": 50.1206638,
    "lng": 8.672141,
    "url": "https://www.google.com/maps/search/?api=1&query=Dr.%20Hegner%20Frankfurt%20am%20Main"
  },
  {
    "name": "Dr. Nist",
    "city": "Frankfurt am Main",
    "category": "doctors",
    "nameable": false,
    "entity_type": "person",
    "lat": 50.1572607,
    "lng": 8.6306077,
    "url": "https://www.google.com/maps/search/?api=1&query=Dr.%20Nist%20Frankfurt%20am%20Main"
  },
  {
    "name": "Dr. Ruse",
    "city": "Frankfurt am Main",
    "category": "doctors",
    "nameable": false,
    "entity_type": "person",
    "lat": 50.1420868,
    "lng": 8.6104077,
    "url": "https://www.google.com/maps/search/?api=1&query=Dr.%20Ruse%20Frankfurt%20am%20Main"
  },
  {
    "name": "Dermasthetics, Institut für schöne und gesunde Haut",
    "city": "Frankfurt am Main",
    "category": "doctors",
    "nameable": false,
    "entity_type": "person",
    "lat": 50.1145482,
    "lng": 8.6738452,
    "url": "https://www.google.com/maps/search/?api=1&query=Dermasthetics%2C%20Institut%20f%C3%BCr%20sch%C3%B6ne%20und%20gesunde%20Haut%20Frankfurt%20am%20Main"
  },
  {
    "name": "Neuropraxis-FFM",
    "city": "Frankfurt am Main",
    "category": "doctors",
    "nameable": true,
    "entity_type": "business",
    "lat": 50.1206537,
    "lng": 8.7017362,
    "url": "https://www.google.com/maps/search/?api=1&query=Neuropraxis-FFM%20Frankfurt%20am%20Main"
  },
  {
    "name": "Betriebsarzt",
    "city": "Frankfurt am Main",
    "category": "doctors",
    "nameable": true,
    "entity_type": "business",
    "lat": 50.1726261,
    "lng": 8.6303455,
    "url": "https://www.google.com/maps/search/?api=1&query=Betriebsarzt%20Frankfurt%20am%20Main"
  },
  {
    "name": "Dr.med.dent. Ileana Popescu",
    "city": "Frankfurt am Main",
    "category": "doctors",
    "nameable": false,
    "entity_type": "person",
    "lat": 50.1204777,
    "lng": 8.5678316,
    "url": "https://www.google.com/maps/search/?api=1&query=Dr.med.dent.%20Ileana%20Popescu%20Frankfurt%20am%20Main"
  },
  {
    "name": "Dr. med. Carolina Simrock Internistin",
    "city": "Frankfurt am Main",
    "category": "doctors",
    "nameable": false,
    "entity_type": "person",
    "lat": 50.1193229,
    "lng": 8.5660659,
    "url": "https://www.google.com/maps/search/?api=1&query=Dr.%20med.%20Carolina%20Simrock%20Internistin%20Frankfurt%20am%20Main"
  },
  {
    "name": "Hautzentrum Nordwest",
    "city": "Frankfurt am Main",
    "category": "doctors",
    "nameable": false,
    "entity_type": "person",
    "lat": 50.1576568,
    "lng": 8.6345531,
    "url": "https://www.google.com/maps/search/?api=1&query=Hautzentrum%20Nordwest%20Frankfurt%20am%20Main"
  },
  {
    "name": "Liebfrauenarztpraxis",
    "city": "Frankfurt am Main",
    "category": "doctors",
    "nameable": true,
    "entity_type": "business",
    "lat": 50.1125555,
    "lng": 8.6817845,
    "url": "https://www.google.com/maps/search/?api=1&query=Liebfrauenarztpraxis%20Frankfurt%20am%20Main"
  },
  {
    "name": "Dr. Elfi Haardt-Hofmann, Anne Gruppe, Uwe Albrecht",
    "city": "Frankfurt am Main",
    "category": "doctors",
    "nameable": false,
    "entity_type": "person",
    "lat": 50.1292701,
    "lng": 8.696974,
    "url": "https://www.google.com/maps/search/?api=1&query=Dr.%20Elfi%20Haardt-Hofmann%2C%20Anne%20Gruppe%2C%20Uwe%20Albrecht%20Frankfurt%20am%20Main"
  },
  {
    "name": "Kunz",
    "city": "Frankfurt am Main",
    "category": "doctors",
    "nameable": true,
    "entity_type": "business",
    "lat": 50.0954191,
    "lng": 8.4935669,
    "url": "https://www.google.com/maps/search/?api=1&query=Kunz%20Frankfurt%20am%20Main"
  },
  {
    "name": "Endokrinilogikum",
    "city": "Frankfurt am Main",
    "category": "doctors",
    "nameable": true,
    "entity_type": "business",
    "lat": 50.1000878,
    "lng": 8.6685454,
    "url": "https://www.google.com/maps/search/?api=1&query=Endokrinilogikum%20Frankfurt%20am%20Main"
  },
  {
    "name": "Ärztlicher Bereitschaftsdienst",
    "city": "Frankfurt am Main",
    "category": "doctors",
    "nameable": false,
    "entity_type": "person",
    "lat": 50.1302818,
    "lng": 8.6864319,
    "url": "https://www.google.com/maps/search/?api=1&query=%C3%84rztlicher%20Bereitschaftsdienst%20Frankfurt%20am%20Main"
  },
  {
    "name": "Diabetologische Schwerpunktpraxis",
    "city": "Frankfurt am Main",
    "category": "doctors",
    "nameable": false,
    "entity_type": "person",
    "lat": 50.1508323,
    "lng": 8.6635376,
    "url": "https://www.google.com/maps/search/?api=1&query=Diabetologische%20Schwerpunktpraxis%20Frankfurt%20am%20Main"
  },
  {
    "name": "Augenärzte am Städel",
    "city": "Frankfurt am Main",
    "category": "doctors",
    "nameable": true,
    "entity_type": "business",
    "lat": 50.1026331,
    "lng": 8.6765771,
    "url": "https://www.google.com/maps/search/?api=1&query=Augen%C3%A4rzte%20am%20St%C3%A4del%20Frankfurt%20am%20Main"
  },
  {
    "name": "Kinderarztpraxis Dr. Sabine Wüllenweber-Oechsler",
    "city": "Frankfurt am Main",
    "category": "doctors",
    "nameable": false,
    "entity_type": "person",
    "lat": 50.0866269,
    "lng": 8.6425094,
    "url": "https://www.google.com/maps/search/?api=1&query=Kinderarztpraxis%20Dr.%20Sabine%20W%C3%BCllenweber-Oechsler%20Frankfurt%20am%20Main"
  },
  {
    "name": "Privatpraxis Dr. med. Matthias Kaul",
    "city": "Frankfurt am Main",
    "category": "doctors",
    "nameable": false,
    "entity_type": "person",
    "lat": 50.1783382,
    "lng": 8.6283359,
    "url": "https://www.google.com/maps/search/?api=1&query=Privatpraxis%20Dr.%20med.%20Matthias%20Kaul%20Frankfurt%20am%20Main"
  },
  {
    "name": "MVZ Orthopädie Frankfurt",
    "city": "Frankfurt am Main",
    "category": "doctors",
    "nameable": true,
    "entity_type": "business",
    "lat": 50.1249961,
    "lng": 8.6072836,
    "url": "https://www.google.com/maps/search/?api=1&query=MVZ%20Orthop%C3%A4die%20Frankfurt%20Frankfurt%20am%20Main"
  },
  {
    "name": "Malek",
    "city": "Frankfurt am Main",
    "category": "doctors",
    "nameable": true,
    "entity_type": "business",
    "lat": 50.1014457,
    "lng": 8.6599163,
    "url": "https://www.google.com/maps/search/?api=1&query=Malek%20Frankfurt%20am%20Main"
  },
  {
    "name": "Dr. Jüstel (Hautarzt)",
    "city": "Frankfurt am Main",
    "category": "doctors",
    "nameable": false,
    "entity_type": "person",
    "lat": 50.1140698,
    "lng": 8.6743841,
    "url": "https://www.google.com/maps/search/?api=1&query=Dr.%20J%C3%BCstel%20(Hautarzt)%20Frankfurt%20am%20Main"
  },
  {
    "name": "medneo Diagnostikzentrum Frankfurt am Main",
    "city": "Frankfurt am Main",
    "category": "doctors",
    "nameable": true,
    "entity_type": "business",
    "lat": 50.11587,
    "lng": 8.6680254,
    "url": "https://www.google.com/maps/search/?api=1&query=medneo%20Diagnostikzentrum%20Frankfurt%20am%20Main%20Frankfurt%20am%20Main"
  },
  {
    "name": "Dr. Nauras Abuagela",
    "city": "Frankfurt am Main",
    "category": "doctors",
    "nameable": false,
    "entity_type": "person",
    "lat": 50.113521,
    "lng": 8.6758389,
    "url": "https://www.google.com/maps/search/?api=1&query=Dr.%20Nauras%20Abuagela%20Frankfurt%20am%20Main"
  },
  {
    "name": "Facharzt für Orthopädie Dr. Castenholz",
    "city": "Frankfurt am Main",
    "category": "doctors",
    "nameable": false,
    "entity_type": "person",
    "lat": 50.1263293,
    "lng": 8.6917152,
    "url": "https://www.google.com/maps/search/?api=1&query=Facharzt%20f%C3%BCr%20Orthop%C3%A4die%20Dr.%20Castenholz%20Frankfurt%20am%20Main"
  },
  {
    "name": "Antonio Burghauser",
    "city": "Frankfurt am Main",
    "category": "doctors",
    "nameable": false,
    "entity_type": "person",
    "lat": 50.1171872,
    "lng": 8.7096913,
    "url": "https://www.google.com/maps/search/?api=1&query=Antonio%20Burghauser%20Frankfurt%20am%20Main"
  },
  {
    "name": "Jawid Habibzada",
    "city": "Frankfurt am Main",
    "category": "doctors",
    "nameable": false,
    "entity_type": "person",
    "lat": 50.0906723,
    "lng": 8.6074004,
    "url": "https://www.google.com/maps/search/?api=1&query=Jawid%20Habibzada%20Frankfurt%20am%20Main"
  },
  {
    "name": "Dr. med. Panja Berkhoff",
    "city": "Frankfurt am Main",
    "category": "doctors",
    "nameable": false,
    "entity_type": "person",
    "lat": 50.114201,
    "lng": 8.6989614,
    "url": "https://www.google.com/maps/search/?api=1&query=Dr.%20med.%20Panja%20Berkhoff%20Frankfurt%20am%20Main"
  },
  {
    "name": "Dr.-medic A. Tarcau",
    "city": "Frankfurt am Main",
    "category": "doctors",
    "nameable": false,
    "entity_type": "person",
    "lat": 50.1131364,
    "lng": 8.7009298,
    "url": "https://www.google.com/maps/search/?api=1&query=Dr.-medic%20A.%20Tarcau%20Frankfurt%20am%20Main"
  },
  {
    "name": "BAD Gesundheitszentrum Frankfurt/Main",
    "city": "Frankfurt am Main",
    "category": "doctors",
    "nameable": false,
    "entity_type": "person",
    "lat": 50.1685466,
    "lng": 8.6434899,
    "url": "https://www.google.com/maps/search/?api=1&query=BAD%20Gesundheitszentrum%20Frankfurt%2FMain%20Frankfurt%20am%20Main"
  },
  {
    "name": "Dr. Bettina Assmann-Sauerbrey",
    "city": "Frankfurt am Main",
    "category": "doctors",
    "nameable": false,
    "entity_type": "person",
    "lat": 50.1613696,
    "lng": 8.6476352,
    "url": "https://www.google.com/maps/search/?api=1&query=Dr.%20Bettina%20Assmann-Sauerbrey%20Frankfurt%20am%20Main"
  },
  {
    "name": "Naturheilpraxis Franziska Bergmann",
    "city": "Frankfurt am Main",
    "category": "doctors",
    "nameable": false,
    "entity_type": "person",
    "lat": 50.1250356,
    "lng": 8.7059875,
    "url": "https://www.google.com/maps/search/?api=1&query=Naturheilpraxis%20Franziska%20Bergmann%20Frankfurt%20am%20Main"
  },
  {
    "name": "Gemeinschaftspraxis für Allgemeinmedizin im Gallusviertel",
    "city": "Frankfurt am Main",
    "category": "doctors",
    "nameable": true,
    "entity_type": "business",
    "lat": 50.1038414,
    "lng": 8.6357451,
    "url": "https://www.google.com/maps/search/?api=1&query=Gemeinschaftspraxis%20f%C3%BCr%20Allgemeinmedizin%20im%20Gallusviertel%20Frankfurt%20am%20Main"
  },
  {
    "name": "Dr. Elke Iburg",
    "city": "Frankfurt am Main",
    "category": "doctors",
    "nameable": false,
    "entity_type": "person",
    "lat": 50.1248507,
    "lng": 8.7050539,
    "url": "https://www.google.com/maps/search/?api=1&query=Dr.%20Elke%20Iburg%20Frankfurt%20am%20Main"
  },
  {
    "name": "Dr. Med. Claus Keller",
    "city": "Frankfurt am Main",
    "category": "doctors",
    "nameable": false,
    "entity_type": "person",
    "lat": 50.1297406,
    "lng": 8.7064156,
    "url": "https://www.google.com/maps/search/?api=1&query=Dr.%20Med.%20Claus%20Keller%20Frankfurt%20am%20Main"
  },
  {
    "name": "Gemeinschaftspraxis Dr. Teschner/ Dr. Körner",
    "city": "Frankfurt am Main",
    "category": "doctors",
    "nameable": false,
    "entity_type": "person",
    "lat": 50.1065733,
    "lng": 8.5781017,
    "url": "https://www.google.com/maps/search/?api=1&query=Gemeinschaftspraxis%20Dr.%20Teschner%2F%20Dr.%20K%C3%B6rner%20Frankfurt%20am%20Main"
  },
  {
    "name": "Radiologie Nuklearmedizin Adickesallee",
    "city": "Frankfurt am Main",
    "category": "doctors",
    "nameable": false,
    "entity_type": "person",
    "lat": 50.1319372,
    "lng": 8.6762498,
    "url": "https://www.google.com/maps/search/?api=1&query=Radiologie%20Nuklearmedizin%20Adickesallee%20Frankfurt%20am%20Main"
  },
  {
    "name": "Neeb",
    "city": "Frankfurt am Main",
    "category": "doctors",
    "nameable": true,
    "entity_type": "business",
    "lat": 50.1121882,
    "lng": 8.6574266,
    "url": "https://www.google.com/maps/search/?api=1&query=Neeb%20Frankfurt%20am%20Main"
  },
  {
    "name": "Dr. Katharina Schulz",
    "city": "Frankfurt am Main",
    "category": "doctors",
    "nameable": false,
    "entity_type": "person",
    "lat": 50.1208,
    "lng": 8.6999287,
    "url": "https://www.google.com/maps/search/?api=1&query=Dr.%20Katharina%20Schulz%20Frankfurt%20am%20Main"
  },
  {
    "name": "Daryoush Selookaneh",
    "city": "Frankfurt am Main",
    "category": "doctors",
    "nameable": false,
    "entity_type": "person",
    "lat": 50.1207509,
    "lng": 8.6994315,
    "url": "https://www.google.com/maps/search/?api=1&query=Daryoush%20Selookaneh%20Frankfurt%20am%20Main"
  },
  {
    "name": "Ärztehaus",
    "city": "Frankfurt am Main",
    "category": "doctors",
    "nameable": true,
    "entity_type": "business",
    "lat": 50.12472,
    "lng": 8.6101202,
    "url": "https://www.google.com/maps/search/?api=1&query=%C3%84rztehaus%20Frankfurt%20am%20Main"
  },
  {
    "name": "Neurochirurgie Frankfurt am Zoo",
    "city": "Frankfurt am Main",
    "category": "doctors",
    "nameable": true,
    "entity_type": "business",
    "lat": 50.1160204,
    "lng": 8.696011,
    "url": "https://www.google.com/maps/search/?api=1&query=Neurochirurgie%20Frankfurt%20am%20Zoo%20Frankfurt%20am%20Main"
  },
  {
    "name": "Irene Kern",
    "city": "Frankfurt am Main",
    "category": "doctors",
    "nameable": false,
    "entity_type": "person",
    "lat": 50.1160208,
    "lng": 8.6960637,
    "url": "https://www.google.com/maps/search/?api=1&query=Irene%20Kern%20Frankfurt%20am%20Main"
  },
  {
    "name": "Dr. Peter Hübner",
    "city": "Frankfurt am Main",
    "category": "doctors",
    "nameable": false,
    "entity_type": "person",
    "lat": 50.1160196,
    "lng": 8.6959057,
    "url": "https://www.google.com/maps/search/?api=1&query=Dr.%20Peter%20H%C3%BCbner%20Frankfurt%20am%20Main"
  },
  {
    "name": "Dr. Willeke Kieferorthopädie",
    "city": "Frankfurt am Main",
    "category": "doctors",
    "nameable": false,
    "entity_type": "person",
    "lat": 50.1037748,
    "lng": 8.6789276,
    "url": "https://www.google.com/maps/search/?api=1&query=Dr.%20Willeke%20Kieferorthop%C3%A4die%20Frankfurt%20am%20Main"
  },
  {
    "name": "Dr. Claudia Röder-Dischinger",
    "city": "Frankfurt am Main",
    "category": "doctors",
    "nameable": false,
    "entity_type": "person",
    "lat": 50.1206461,
    "lng": 8.6863889,
    "url": "https://www.google.com/maps/search/?api=1&query=Dr.%20Claudia%20R%C3%B6der-Dischinger%20Frankfurt%20am%20Main"
  },
  {
    "name": "Dr. Raoul Leber",
    "city": "Frankfurt am Main",
    "category": "doctors",
    "nameable": false,
    "entity_type": "person",
    "lat": 50.122573,
    "lng": 8.6865374,
    "url": "https://www.google.com/maps/search/?api=1&query=Dr.%20Raoul%20Leber%20Frankfurt%20am%20Main"
  },
  {
    "name": "Hausarztpraxis",
    "city": "Frankfurt am Main",
    "category": "doctors",
    "nameable": true,
    "entity_type": "business",
    "lat": 50.1286233,
    "lng": 8.6928805,
    "url": "https://www.google.com/maps/search/?api=1&query=Hausarztpraxis%20Frankfurt%20am%20Main"
  },
  {
    "name": "Bozer / Brinkmann",
    "city": "Frankfurt am Main",
    "category": "doctors",
    "nameable": false,
    "entity_type": "person",
    "lat": 50.1276604,
    "lng": 8.6918673,
    "url": "https://www.google.com/maps/search/?api=1&query=Bozer%20%2F%20Brinkmann%20Frankfurt%20am%20Main"
  },
  {
    "name": "Christine Dernbach",
    "city": "Frankfurt am Main",
    "category": "doctors",
    "nameable": false,
    "entity_type": "person",
    "lat": 50.1191756,
    "lng": 8.6889839,
    "url": "https://www.google.com/maps/search/?api=1&query=Christine%20Dernbach%20Frankfurt%20am%20Main"
  },
  {
    "name": "Frauenarztpraxis Schütt / Selmi",
    "city": "Frankfurt am Main",
    "category": "doctors",
    "nameable": false,
    "entity_type": "person",
    "lat": 50.1192169,
    "lng": 8.6890241,
    "url": "https://www.google.com/maps/search/?api=1&query=Frauenarztpraxis%20Sch%C3%BCtt%20%2F%20Selmi%20Frankfurt%20am%20Main"
  },
  {
    "name": "MVZ St. Kamillus",
    "city": "Frankfurt am Main",
    "category": "doctors",
    "nameable": true,
    "entity_type": "business",
    "lat": 50.1287703,
    "lng": 8.6869186,
    "url": "https://www.google.com/maps/search/?api=1&query=MVZ%20St.%20Kamillus%20Frankfurt%20am%20Main"
  },
  {
    "name": "Facharzt für Kinder- und Jugendheilkunde Hr. Dr. Martin Castaño Alzate",
    "city": "Frankfurt am Main",
    "category": "doctors",
    "nameable": false,
    "entity_type": "person",
    "lat": 50.1264221,
    "lng": 8.6086773,
    "url": "https://www.google.com/maps/search/?api=1&query=Facharzt%20f%C3%BCr%20Kinder-%20und%20Jugendheilkunde%20Hr.%20Dr.%20Martin%20Casta%C3%B1o%20Alzate%20Frankfurt%20am%20Main"
  },
  {
    "name": "Dr. med. Mahmoud Mahmoud",
    "city": "Frankfurt am Main",
    "category": "doctors",
    "nameable": false,
    "entity_type": "person",
    "lat": 50.1254414,
    "lng": 8.6108484,
    "url": "https://www.google.com/maps/search/?api=1&query=Dr.%20med.%20Mahmoud%20Mahmoud%20Frankfurt%20am%20Main"
  },
  {
    "name": "Physiotherapie Kroneisen",
    "city": "Frankfurt am Main",
    "category": "doctors",
    "nameable": true,
    "entity_type": "business",
    "lat": 50.1250149,
    "lng": 8.6073064,
    "url": "https://www.google.com/maps/search/?api=1&query=Physiotherapie%20Kroneisen%20Frankfurt%20am%20Main"
  },
  {
    "name": "Cosima Scheiner",
    "city": "Frankfurt am Main",
    "category": "doctors",
    "nameable": false,
    "entity_type": "person",
    "lat": 50.1488705,
    "lng": 8.6752341,
    "url": "https://www.google.com/maps/search/?api=1&query=Cosima%20Scheiner%20Frankfurt%20am%20Main"
  },
  {
    "name": "Gynäkologie am Riedberg",
    "city": "Frankfurt am Main",
    "category": "doctors",
    "nameable": true,
    "entity_type": "business",
    "lat": 50.1769325,
    "lng": 8.6296977,
    "url": "https://www.google.com/maps/search/?api=1&query=Gyn%C3%A4kologie%20am%20Riedberg%20Frankfurt%20am%20Main"
  },
  {
    "name": "Hausarztpraxis im Schleusenweg",
    "city": "Frankfurt am Main",
    "category": "doctors",
    "nameable": true,
    "entity_type": "business",
    "lat": 50.0896899,
    "lng": 8.649513,
    "url": "https://www.google.com/maps/search/?api=1&query=Hausarztpraxis%20im%20Schleusenweg%20Frankfurt%20am%20Main"
  },
  {
    "name": "Dr. med. Christoph Lotz",
    "city": "Frankfurt am Main",
    "category": "doctors",
    "nameable": false,
    "entity_type": "person",
    "lat": 50.1301829,
    "lng": 8.7061045,
    "url": "https://www.google.com/maps/search/?api=1&query=Dr.%20med.%20Christoph%20Lotz%20Frankfurt%20am%20Main"
  },
  {
    "name": "Constanze Resch",
    "city": "Frankfurt am Main",
    "category": "doctors",
    "nameable": false,
    "entity_type": "person",
    "lat": 50.0923367,
    "lng": 8.5015136,
    "url": "https://www.google.com/maps/search/?api=1&query=Constanze%20Resch%20Frankfurt%20am%20Main"
  },
  {
    "name": "Nordwest Physiotherapie",
    "city": "Frankfurt am Main",
    "category": "doctors",
    "nameable": true,
    "entity_type": "business",
    "lat": 50.1488014,
    "lng": 8.618254,
    "url": "https://www.google.com/maps/search/?api=1&query=Nordwest%20Physiotherapie%20Frankfurt%20am%20Main"
  },
  {
    "name": "Tu-Linh Wengrzik",
    "city": "Frankfurt am Main",
    "category": "doctors",
    "nameable": false,
    "entity_type": "person",
    "lat": 50.0937091,
    "lng": 8.4944608,
    "url": "https://www.google.com/maps/search/?api=1&query=Tu-Linh%20Wengrzik%20Frankfurt%20am%20Main"
  },
  {
    "name": "Alexandra Kern",
    "city": "Frankfurt am Main",
    "category": "doctors",
    "nameable": false,
    "entity_type": "person",
    "lat": 50.0948227,
    "lng": 8.4946312,
    "url": "https://www.google.com/maps/search/?api=1&query=Alexandra%20Kern%20Frankfurt%20am%20Main"
  },
  {
    "name": "Eva Gräff",
    "city": "Frankfurt am Main",
    "category": "doctors",
    "nameable": false,
    "entity_type": "person",
    "lat": 50.1011103,
    "lng": 8.5011754,
    "url": "https://www.google.com/maps/search/?api=1&query=Eva%20Gr%C3%A4ff%20Frankfurt%20am%20Main"
  },
  {
    "name": "Dr. med. Tanja Dioeva",
    "city": "Frankfurt am Main",
    "category": "doctors",
    "nameable": false,
    "entity_type": "person",
    "lat": 50.1213171,
    "lng": 8.6158188,
    "url": "https://www.google.com/maps/search/?api=1&query=Dr.%20med.%20Tanja%20Dioeva%20Frankfurt%20am%20Main"
  },
  {
    "name": "EuroEyes AugenLaserZentrum Frankfurt",
    "city": "Frankfurt am Main",
    "category": "doctors",
    "nameable": false,
    "entity_type": "person",
    "lat": 50.1147728,
    "lng": 8.6749662,
    "url": "https://www.google.com/maps/search/?api=1&query=EuroEyes%20AugenLaserZentrum%20Frankfurt%20Frankfurt%20am%20Main"
  },
  {
    "name": "HNO Goethestraße",
    "city": "Frankfurt am Main",
    "category": "doctors",
    "nameable": false,
    "entity_type": "person",
    "lat": 50.1140481,
    "lng": 8.6744529,
    "url": "https://www.google.com/maps/search/?api=1&query=HNO%20Goethestra%C3%9Fe%20Frankfurt%20am%20Main"
  },
  {
    "name": "Gemeinschaftspraxis für Urologie",
    "city": "Frankfurt am Main",
    "category": "doctors",
    "nameable": true,
    "entity_type": "business",
    "lat": 50.1424787,
    "lng": 8.6682786,
    "url": "https://www.google.com/maps/search/?api=1&query=Gemeinschaftspraxis%20f%C3%BCr%20Urologie%20Frankfurt%20am%20Main"
  },
  {
    "name": "Hausarztpraxis am Weißen Stein",
    "city": "Frankfurt am Main",
    "category": "doctors",
    "nameable": false,
    "entity_type": "person",
    "lat": 50.1600634,
    "lng": 8.6553617,
    "url": "https://www.google.com/maps/search/?api=1&query=Hausarztpraxis%20am%20Wei%C3%9Fen%20Stein%20Frankfurt%20am%20Main"
  },
  {
    "name": "Dr. Christa Lips-Schulte",
    "city": "Frankfurt am Main",
    "category": "doctors",
    "nameable": false,
    "entity_type": "person",
    "lat": 50.1220775,
    "lng": 8.7671452,
    "url": "https://www.google.com/maps/search/?api=1&query=Dr.%20Christa%20Lips-Schulte%20Frankfurt%20am%20Main"
  },
  {
    "name": "Orthopädie am Fürstenhof",
    "city": "Frankfurt am Main",
    "category": "doctors",
    "nameable": true,
    "entity_type": "business",
    "lat": 50.1088959,
    "lng": 8.6715436,
    "url": "https://www.google.com/maps/search/?api=1&query=Orthop%C3%A4die%20am%20F%C3%BCrstenhof%20Frankfurt%20am%20Main"
  },
  {
    "name": "Augenärztinnen Dr.Esser und Dr.Schuber",
    "city": "Frankfurt am Main",
    "category": "doctors",
    "nameable": false,
    "entity_type": "person",
    "lat": 50.1012494,
    "lng": 8.5454632,
    "url": "https://www.google.com/maps/search/?api=1&query=Augen%C3%A4rztinnen%20Dr.Esser%20und%20Dr.Schuber%20Frankfurt%20am%20Main"
  },
  {
    "name": "Elvira Peroni",
    "city": "Frankfurt am Main",
    "category": "doctors",
    "nameable": false,
    "entity_type": "person",
    "lat": 50.1054438,
    "lng": 8.69778,
    "url": "https://www.google.com/maps/search/?api=1&query=Elvira%20Peroni%20Frankfurt%20am%20Main"
  },
  {
    "name": "Dr. med. Andreas Hahold",
    "city": "Frankfurt am Main",
    "category": "doctors",
    "nameable": false,
    "entity_type": "person",
    "lat": 50.12404,
    "lng": 8.7434223,
    "url": "https://www.google.com/maps/search/?api=1&query=Dr.%20med.%20Andreas%20Hahold%20Frankfurt%20am%20Main"
  },
  {
    "name": "Praxis für Allgemeinmedizin Lena Dagaeva",
    "city": "Frankfurt am Main",
    "category": "doctors",
    "nameable": false,
    "entity_type": "person",
    "lat": 50.1080232,
    "lng": 8.6404461,
    "url": "https://www.google.com/maps/search/?api=1&query=Praxis%20f%C3%BCr%20Allgemeinmedizin%20Lena%20Dagaeva%20Frankfurt%20am%20Main"
  },
  {
    "name": "Stefanie Gödeke-Daub",
    "city": "Frankfurt am Main",
    "category": "doctors",
    "nameable": false,
    "entity_type": "person",
    "lat": 50.1479325,
    "lng": 8.6647811,
    "url": "https://www.google.com/maps/search/?api=1&query=Stefanie%20G%C3%B6deke-Daub%20Frankfurt%20am%20Main"
  },
  {
    "name": "Hanna Kowalska-Kreutz",
    "city": "Frankfurt am Main",
    "category": "doctors",
    "nameable": false,
    "entity_type": "person",
    "lat": 50.1444468,
    "lng": 8.6492882,
    "url": "https://www.google.com/maps/search/?api=1&query=Hanna%20Kowalska-Kreutz%20Frankfurt%20am%20Main"
  },
  {
    "name": "Horst Falkenhan",
    "city": "Frankfurt am Main",
    "category": "doctors",
    "nameable": false,
    "entity_type": "person",
    "lat": 50.1614829,
    "lng": 8.647663,
    "url": "https://www.google.com/maps/search/?api=1&query=Horst%20Falkenhan%20Frankfurt%20am%20Main"
  },
  {
    "name": "HNO-Praxis Holzhausenviertel",
    "city": "Frankfurt am Main",
    "category": "doctors",
    "nameable": false,
    "entity_type": "person",
    "lat": 50.1297283,
    "lng": 8.6726974,
    "url": "https://www.google.com/maps/search/?api=1&query=HNO-Praxis%20Holzhausenviertel%20Frankfurt%20am%20Main"
  },
  {
    "name": "Elena Schmick - Fachärztin für Allgemeinmedizin",
    "city": "Frankfurt am Main",
    "category": "doctors",
    "nameable": false,
    "entity_type": "person",
    "lat": 50.1481549,
    "lng": 8.616303,
    "url": "https://www.google.com/maps/search/?api=1&query=Elena%20Schmick%20-%20Fach%C3%A4rztin%20f%C3%BCr%20Allgemeinmedizin%20Frankfurt%20am%20Main"
  },
  {
    "name": "Überörtliche Gemeinschaftspraxis",
    "city": "Frankfurt am Main",
    "category": "doctors",
    "nameable": true,
    "entity_type": "business",
    "lat": 50.1392236,
    "lng": 8.6973464,
    "url": "https://www.google.com/maps/search/?api=1&query=%C3%9Cber%C3%B6rtliche%20Gemeinschaftspraxis%20Frankfurt%20am%20Main"
  },
  {
    "name": "Dr. Zsok",
    "city": "Frankfurt am Main",
    "category": "doctors",
    "nameable": false,
    "entity_type": "person",
    "lat": 50.1247599,
    "lng": 8.7689209,
    "url": "https://www.google.com/maps/search/?api=1&query=Dr.%20Zsok%20Frankfurt%20am%20Main"
  },
  {
    "name": "Hausarztpraxis Alt-Fechenheim",
    "city": "Frankfurt am Main",
    "category": "doctors",
    "nameable": false,
    "entity_type": "person",
    "lat": 50.1238275,
    "lng": 8.7698551,
    "url": "https://www.google.com/maps/search/?api=1&query=Hausarztpraxis%20Alt-Fechenheim%20Frankfurt%20am%20Main"
  },
  {
    "name": "HNO Dr. Hellweg",
    "city": "Frankfurt am Main",
    "category": "doctors",
    "nameable": false,
    "entity_type": "person",
    "lat": 50.113901,
    "lng": 8.6740094,
    "url": "https://www.google.com/maps/search/?api=1&query=HNO%20Dr.%20Hellweg%20Frankfurt%20am%20Main"
  },
  {
    "name": "Pia Mandler",
    "city": "Frankfurt am Main",
    "category": "doctors",
    "nameable": false,
    "entity_type": "person",
    "lat": 50.1001071,
    "lng": 8.6817854,
    "url": "https://www.google.com/maps/search/?api=1&query=Pia%20Mandler%20Frankfurt%20am%20Main"
  },
  {
    "name": "nexmed - Radiologie Frankfurt",
    "city": "Frankfurt am Main",
    "category": "doctors",
    "nameable": true,
    "entity_type": "business",
    "lat": 50.1111278,
    "lng": 8.661277,
    "url": "https://www.google.com/maps/search/?api=1&query=nexmed%20-%20Radiologie%20Frankfurt%20Frankfurt%20am%20Main"
  },
  {
    "name": "Praxis Dr. Dipl.-Psych. Aris Panagiotidis",
    "city": "Frankfurt am Main",
    "category": "doctors",
    "nameable": false,
    "entity_type": "person",
    "lat": 50.120952,
    "lng": 8.6777548,
    "url": "https://www.google.com/maps/search/?api=1&query=Praxis%20Dr.%20Dipl.-Psych.%20Aris%20Panagiotidis%20Frankfurt%20am%20Main"
  },
  {
    "name": "Dr. med. Gregor Brüggemann",
    "city": "Frankfurt am Main",
    "category": "doctors",
    "nameable": false,
    "entity_type": "person",
    "lat": 50.1189621,
    "lng": 8.6795305,
    "url": "https://www.google.com/maps/search/?api=1&query=Dr.%20med.%20Gregor%20Br%C3%BCggemann%20Frankfurt%20am%20Main"
  },
  {
    "name": "Gemeinschaftspraxis Freise/Bechstein",
    "city": "Frankfurt am Main",
    "category": "doctors",
    "nameable": false,
    "entity_type": "person",
    "lat": 50.1000125,
    "lng": 8.7245522,
    "url": "https://www.google.com/maps/search/?api=1&query=Gemeinschaftspraxis%20Freise%2FBechstein%20Frankfurt%20am%20Main"
  },
  {
    "name": "Dr. med. Cordula Krause",
    "city": "Frankfurt am Main",
    "category": "doctors",
    "nameable": false,
    "entity_type": "person",
    "lat": 50.1006785,
    "lng": 8.5461508,
    "url": "https://www.google.com/maps/search/?api=1&query=Dr.%20med.%20Cordula%20Krause%20Frankfurt%20am%20Main"
  },
  {
    "name": "Tatjana Röß; Joachim Kraus",
    "city": "Frankfurt am Main",
    "category": "doctors",
    "nameable": false,
    "entity_type": "person",
    "lat": 50.1026016,
    "lng": 8.644264,
    "url": "https://www.google.com/maps/search/?api=1&query=Tatjana%20R%C3%B6%C3%9F%3B%20Joachim%20Kraus%20Frankfurt%20am%20Main"
  },
  {
    "name": "Rüdiger Schott; Dr. med. Britta Heyne",
    "city": "Frankfurt am Main",
    "category": "doctors",
    "nameable": false,
    "entity_type": "person",
    "lat": 50.1026358,
    "lng": 8.6442612,
    "url": "https://www.google.com/maps/search/?api=1&query=R%C3%BCdiger%20Schott%3B%20Dr.%20med.%20Britta%20Heyne%20Frankfurt%20am%20Main"
  },
  {
    "name": "Schulter Frankfurt",
    "city": "Frankfurt am Main",
    "category": "doctors",
    "nameable": true,
    "entity_type": "business",
    "lat": 50.1207615,
    "lng": 8.6768211,
    "url": "https://www.google.com/maps/search/?api=1&query=Schulter%20Frankfurt%20Frankfurt%20am%20Main"
  },
  {
    "name": "Gelenk Wirbel Steuer",
    "city": "Frankfurt am Main",
    "category": "doctors",
    "nameable": false,
    "entity_type": "person",
    "lat": 50.1207424,
    "lng": 8.6767743,
    "url": "https://www.google.com/maps/search/?api=1&query=Gelenk%20Wirbel%20Steuer%20Frankfurt%20am%20Main"
  },
  {
    "name": "Leber, Erhardt, Otte, Schröck",
    "city": "Frankfurt am Main",
    "category": "doctors",
    "nameable": false,
    "entity_type": "person",
    "lat": 50.1210757,
    "lng": 8.6774891,
    "url": "https://www.google.com/maps/search/?api=1&query=Leber%2C%20Erhardt%2C%20Otte%2C%20Schr%C3%B6ck%20Frankfurt%20am%20Main"
  },
  {
    "name": "Augenzentrum Frankfurt",
    "city": "Frankfurt am Main",
    "category": "doctors",
    "nameable": true,
    "entity_type": "business",
    "lat": 50.0549635,
    "lng": 8.5906094,
    "url": "https://www.google.com/maps/search/?api=1&query=Augenzentrum%20Frankfurt%20Frankfurt%20am%20Main"
  },
  {
    "name": "Gemeinschaftspraxis Schneckenhofstraße",
    "city": "Frankfurt am Main",
    "category": "doctors",
    "nameable": true,
    "entity_type": "business",
    "lat": 50.1008523,
    "lng": 8.677617,
    "url": "https://www.google.com/maps/search/?api=1&query=Gemeinschaftspraxis%20Schneckenhofstra%C3%9Fe%20Frankfurt%20am%20Main"
  },
  {
    "name": "Dr. M. Saleh",
    "city": "Frankfurt am Main",
    "category": "doctors",
    "nameable": false,
    "entity_type": "person",
    "lat": 50.1143341,
    "lng": 8.6736256,
    "url": "https://www.google.com/maps/search/?api=1&query=Dr.%20M.%20Saleh%20Frankfurt%20am%20Main"
  },
  {
    "name": "Haus- und Facharzt-Zentrum Frankfurt Sachsenhausen/City",
    "city": "Frankfurt am Main",
    "category": "doctors",
    "nameable": true,
    "entity_type": "business",
    "lat": 50.1050084,
    "lng": 8.6783747,
    "url": "https://www.google.com/maps/search/?api=1&query=Haus-%20und%20Facharzt-Zentrum%20Frankfurt%20Sachsenhausen%2FCity%20Frankfurt%20am%20Main"
  },
  {
    "name": "Prodromos Telpesidis",
    "city": "Frankfurt am Main",
    "category": "doctors",
    "nameable": false,
    "entity_type": "person",
    "lat": 50.1233248,
    "lng": 8.6453663,
    "url": "https://www.google.com/maps/search/?api=1&query=Prodromos%20Telpesidis%20Frankfurt%20am%20Main"
  },
  {
    "name": "Praxis Dr. med. Beate Lindemann",
    "city": "Frankfurt am Main",
    "category": "doctors",
    "nameable": false,
    "entity_type": "person",
    "lat": 50.1061756,
    "lng": 8.6516945,
    "url": "https://www.google.com/maps/search/?api=1&query=Praxis%20Dr.%20med.%20Beate%20Lindemann%20Frankfurt%20am%20Main"
  },
  {
    "name": "Orthopädie MainMed MVZ",
    "city": "Frankfurt am Main",
    "category": "doctors",
    "nameable": false,
    "entity_type": "person",
    "lat": 50.1115848,
    "lng": 8.6769091,
    "url": "https://www.google.com/maps/search/?api=1&query=Orthop%C3%A4die%20MainMed%20MVZ%20Frankfurt%20am%20Main"
  },
  {
    "name": "Praxis Dr. Emil Popp",
    "city": "Frankfurt am Main",
    "category": "doctors",
    "nameable": false,
    "entity_type": "person",
    "lat": 50.1086758,
    "lng": 8.6688757,
    "url": "https://www.google.com/maps/search/?api=1&query=Praxis%20Dr.%20Emil%20Popp%20Frankfurt%20am%20Main"
  },
  {
    "name": "Dr. Med. Trülzsch",
    "city": "Frankfurt am Main",
    "category": "doctors",
    "nameable": false,
    "entity_type": "person",
    "lat": 50.1138472,
    "lng": 8.5433678,
    "url": "https://www.google.com/maps/search/?api=1&query=Dr.%20Med.%20Tr%C3%BClzsch%20Frankfurt%20am%20Main"
  },
  {
    "name": "MainFachArzt Drs. Mösch&Khaykin",
    "city": "Frankfurt am Main",
    "category": "doctors",
    "nameable": false,
    "entity_type": "person",
    "lat": 50.1089894,
    "lng": 8.6700447,
    "url": "https://www.google.com/maps/search/?api=1&query=MainFachArzt%20Drs.%20M%C3%B6sch%26Khaykin%20Frankfurt%20am%20Main"
  },
  {
    "name": "Dr. med. Claudia Thurner",
    "city": "Frankfurt am Main",
    "category": "doctors",
    "nameable": false,
    "entity_type": "person",
    "lat": 50.1387975,
    "lng": 8.6483417,
    "url": "https://www.google.com/maps/search/?api=1&query=Dr.%20med.%20Claudia%20Thurner%20Frankfurt%20am%20Main"
  },
  {
    "name": "Dr. med. Gabriele Schneider-Ruffert",
    "city": "Frankfurt am Main",
    "category": "doctors",
    "nameable": false,
    "entity_type": "person",
    "lat": 50.1388088,
    "lng": 8.6482574,
    "url": "https://www.google.com/maps/search/?api=1&query=Dr.%20med.%20Gabriele%20Schneider-Ruffert%20Frankfurt%20am%20Main"
  },
  {
    "name": "Dr.-medic. Anca Calciu",
    "city": "Frankfurt am Main",
    "category": "doctors",
    "nameable": false,
    "entity_type": "person",
    "lat": 50.1388023,
    "lng": 8.6483014,
    "url": "https://www.google.com/maps/search/?api=1&query=Dr.-medic.%20Anca%20Calciu%20Frankfurt%20am%20Main"
  },
  {
    "name": "Frau Dr. medic. (R) Olivia Weinhardt",
    "city": "Frankfurt am Main",
    "category": "doctors",
    "nameable": false,
    "entity_type": "person",
    "lat": 50.1385245,
    "lng": 8.6461425,
    "url": "https://www.google.com/maps/search/?api=1&query=Frau%20Dr.%20medic.%20(R)%20Olivia%20Weinhardt%20Frankfurt%20am%20Main"
  },
  {
    "name": "Dr. med. Martin Baumeister",
    "city": "Frankfurt am Main",
    "category": "doctors",
    "nameable": false,
    "entity_type": "person",
    "lat": 50.1491252,
    "lng": 8.656815,
    "url": "https://www.google.com/maps/search/?api=1&query=Dr.%20med.%20Martin%20Baumeister%20Frankfurt%20am%20Main"
  },
  {
    "name": "Dr. med. Joachim Krug",
    "city": "Frankfurt am Main",
    "category": "doctors",
    "nameable": false,
    "entity_type": "person",
    "lat": 50.1479911,
    "lng": 8.6651672,
    "url": "https://www.google.com/maps/search/?api=1&query=Dr.%20med.%20Joachim%20Krug%20Frankfurt%20am%20Main"
  },
  {
    "name": "Dr. med. Tuba Diler-Agac",
    "city": "Frankfurt am Main",
    "category": "doctors",
    "nameable": false,
    "entity_type": "person",
    "lat": 50.138515,
    "lng": 8.64618,
    "url": "https://www.google.com/maps/search/?api=1&query=Dr.%20med.%20Tuba%20Diler-Agac%20Frankfurt%20am%20Main"
  },
  {
    "name": "FLYMED Aeromedical Center",
    "city": "Frankfurt am Main",
    "category": "doctors",
    "nameable": false,
    "entity_type": "person",
    "lat": 50.0583408,
    "lng": 8.5872149,
    "url": "https://www.google.com/maps/search/?api=1&query=FLYMED%20Aeromedical%20Center%20Frankfurt%20am%20Main"
  },
  {
    "name": "Haemostas",
    "city": "Frankfurt am Main",
    "category": "doctors",
    "nameable": true,
    "entity_type": "business",
    "lat": 50.0996849,
    "lng": 8.6692241,
    "url": "https://www.google.com/maps/search/?api=1&query=Haemostas%20Frankfurt%20am%20Main"
  },
  {
    "name": "Schönsinn",
    "city": "Frankfurt am Main",
    "category": "doctors",
    "nameable": true,
    "entity_type": "business",
    "lat": 50.1162664,
    "lng": 8.6786471,
    "url": "https://www.google.com/maps/search/?api=1&query=Sch%C3%B6nsinn%20Frankfurt%20am%20Main"
  },
  {
    "name": "Hausärzte Nieder-Erlenbach",
    "city": "Frankfurt am Main",
    "category": "doctors",
    "nameable": false,
    "entity_type": "person",
    "lat": 50.2031384,
    "lng": 8.7093224,
    "url": "https://www.google.com/maps/search/?api=1&query=Haus%C3%A4rzte%20Nieder-Erlenbach%20Frankfurt%20am%20Main"
  },
  {
    "name": "Augenarztpraxis Dr. med. Diana Mintzer",
    "city": "Frankfurt am Main",
    "category": "doctors",
    "nameable": false,
    "entity_type": "person",
    "lat": 50.1186721,
    "lng": 8.6617626,
    "url": "https://www.google.com/maps/search/?api=1&query=Augenarztpraxis%20Dr.%20med.%20Diana%20Mintzer%20Frankfurt%20am%20Main"
  },
  {
    "name": "Sulimanova & Hitziger",
    "city": "Frankfurt am Main",
    "category": "doctors",
    "nameable": false,
    "entity_type": "person",
    "lat": 50.1326414,
    "lng": 8.6252597,
    "url": "https://www.google.com/maps/search/?api=1&query=Sulimanova%20%26%20Hitziger%20Frankfurt%20am%20Main"
  },
  {
    "name": "Dr. med. Daniel Ekhart",
    "city": "Frankfurt am Main",
    "category": "doctors",
    "nameable": false,
    "entity_type": "person",
    "lat": 50.1050328,
    "lng": 8.6783187,
    "url": "https://www.google.com/maps/search/?api=1&query=Dr.%20med.%20Daniel%20Ekhart%20Frankfurt%20am%20Main"
  },
  {
    "name": "Kinderarztpraxis Dr. med Vera Auth",
    "city": "Frankfurt am Main",
    "category": "doctors",
    "nameable": false,
    "entity_type": "person",
    "lat": 50.0845807,
    "lng": 8.6377305,
    "url": "https://www.google.com/maps/search/?api=1&query=Kinderarztpraxis%20Dr.%20med%20Vera%20Auth%20Frankfurt%20am%20Main"
  },
  {
    "name": "Orthopädie an der Rennbahn",
    "city": "Frankfurt am Main",
    "category": "doctors",
    "nameable": true,
    "entity_type": "business",
    "lat": 50.0856714,
    "lng": 8.6492771,
    "url": "https://www.google.com/maps/search/?api=1&query=Orthop%C3%A4die%20an%20der%20Rennbahn%20Frankfurt%20am%20Main"
  },
  {
    "name": "Hausarzt Praxis Dr. med. Nasrin Yousefi",
    "city": "Frankfurt am Main",
    "category": "doctors",
    "nameable": false,
    "entity_type": "person",
    "lat": 50.0866631,
    "lng": 8.6464268,
    "url": "https://www.google.com/maps/search/?api=1&query=Hausarzt%20Praxis%20Dr.%20med.%20Nasrin%20Yousefi%20Frankfurt%20am%20Main"
  },
  {
    "name": "Michael Simonsohn; Nasrat Ander",
    "city": "Frankfurt am Main",
    "category": "doctors",
    "nameable": false,
    "entity_type": "person",
    "lat": 50.102572,
    "lng": 8.6443733,
    "url": "https://www.google.com/maps/search/?api=1&query=Michael%20Simonsohn%3B%20Nasrat%20Ander%20Frankfurt%20am%20Main"
  },
  {
    "name": "Emine Al-Swais",
    "city": "Frankfurt am Main",
    "category": "doctors",
    "nameable": false,
    "entity_type": "person",
    "lat": 50.1025723,
    "lng": 8.644266,
    "url": "https://www.google.com/maps/search/?api=1&query=Emine%20Al-Swais%20Frankfurt%20am%20Main"
  },
  {
    "name": "Ambulantes Operationszentrum",
    "city": "Frankfurt am Main",
    "category": "doctors",
    "nameable": false,
    "entity_type": "person",
    "lat": 50.1026347,
    "lng": 8.6443617,
    "url": "https://www.google.com/maps/search/?api=1&query=Ambulantes%20Operationszentrum%20Frankfurt%20am%20Main"
  },
  {
    "name": "Klinik an der Galluswarte",
    "city": "Frankfurt am Main",
    "category": "doctors",
    "nameable": true,
    "entity_type": "business",
    "lat": 50.1026022,
    "lng": 8.6443592,
    "url": "https://www.google.com/maps/search/?api=1&query=Klinik%20an%20der%20Galluswarte%20Frankfurt%20am%20Main"
  },
  {
    "name": "Dr. med. E. Wissing",
    "city": "Frankfurt am Main",
    "category": "doctors",
    "nameable": false,
    "entity_type": "person",
    "lat": 50.1026747,
    "lng": 8.6442577,
    "url": "https://www.google.com/maps/search/?api=1&query=Dr.%20med.%20E.%20Wissing%20Frankfurt%20am%20Main"
  },
  {
    "name": "Chirurgische Praxis Soleymani",
    "city": "Frankfurt am Main",
    "category": "doctors",
    "nameable": true,
    "entity_type": "business",
    "lat": 50.1057859,
    "lng": 8.650346,
    "url": "https://www.google.com/maps/search/?api=1&query=Chirurgische%20Praxis%20Soleymani%20Frankfurt%20am%20Main"
  },
  {
    "name": "Chirurgische Praxis am Holzhausenpark",
    "city": "Frankfurt am Main",
    "category": "doctors",
    "nameable": true,
    "entity_type": "business",
    "lat": 50.1271712,
    "lng": 8.6758505,
    "url": "https://www.google.com/maps/search/?api=1&query=Chirurgische%20Praxis%20am%20Holzhausenpark%20Frankfurt%20am%20Main"
  },
  {
    "name": "Çiğdem von Nessen",
    "city": "Frankfurt am Main",
    "category": "doctors",
    "nameable": true,
    "entity_type": "business",
    "lat": 50.1142795,
    "lng": 8.6840574,
    "url": "https://www.google.com/maps/search/?api=1&query=%C3%87i%C4%9Fdem%20von%20Nessen%20Frankfurt%20am%20Main"
  },
  {
    "name": "Heike Haug",
    "city": "Frankfurt am Main",
    "category": "doctors",
    "nameable": false,
    "entity_type": "person",
    "lat": 50.1544028,
    "lng": 8.6642766,
    "url": "https://www.google.com/maps/search/?api=1&query=Heike%20Haug%20Frankfurt%20am%20Main"
  },
  {
    "name": "Praxis Dr. med. Clemens Hahn",
    "city": "Frankfurt am Main",
    "category": "doctors",
    "nameable": false,
    "entity_type": "person",
    "lat": 50.1651757,
    "lng": 8.6243775,
    "url": "https://www.google.com/maps/search/?api=1&query=Praxis%20Dr.%20med.%20Clemens%20Hahn%20Frankfurt%20am%20Main"
  },
  {
    "name": "M. Haeder, G. Raab",
    "city": "Frankfurt am Main",
    "category": "doctors",
    "nameable": true,
    "entity_type": "business",
    "lat": 50.0924483,
    "lng": 8.6046492,
    "url": "https://www.google.com/maps/search/?api=1&query=M.%20Haeder%2C%20G.%20Raab%20Frankfurt%20am%20Main"
  },
  {
    "name": "Lumedis Orthopäden",
    "city": "Frankfurt am Main",
    "category": "doctors",
    "nameable": false,
    "entity_type": "person",
    "lat": 50.1109765,
    "lng": 8.6754119,
    "url": "https://www.google.com/maps/search/?api=1&query=Lumedis%20Orthop%C3%A4den%20Frankfurt%20am%20Main"
  },
  {
    "name": "Deutsches Endokrinologisches Versorgungszentrum",
    "city": "Frankfurt am Main",
    "category": "doctors",
    "nameable": false,
    "entity_type": "person",
    "lat": 50.1085631,
    "lng": 8.6620317,
    "url": "https://www.google.com/maps/search/?api=1&query=Deutsches%20Endokrinologisches%20Versorgungszentrum%20Frankfurt%20am%20Main"
  },
  {
    "name": "Dr. Müller",
    "city": "Frankfurt am Main",
    "category": "doctors",
    "nameable": false,
    "entity_type": "person",
    "lat": 50.1087455,
    "lng": 8.6690363,
    "url": "https://www.google.com/maps/search/?api=1&query=Dr.%20M%C3%BCller%20Frankfurt%20am%20Main"
  },
  {
    "name": "Praxis Makansi",
    "city": "Frankfurt am Main",
    "category": "doctors",
    "nameable": true,
    "entity_type": "business",
    "lat": 50.1028548,
    "lng": 8.6400524,
    "url": "https://www.google.com/maps/search/?api=1&query=Praxis%20Makansi%20Frankfurt%20am%20Main"
  },
  {
    "name": "Elbert",
    "city": "Frankfurt am Main",
    "category": "doctors",
    "nameable": true,
    "entity_type": "business",
    "lat": 50.1121884,
    "lng": 8.6312936,
    "url": "https://www.google.com/maps/search/?api=1&query=Elbert%20Frankfurt%20am%20Main"
  },