[
  {
    "name": "Antje Schnorr-Finck",
    "city": "Hamburg",
    "category": "dentist",
    "nameable": false,
    "entity_type": "person",
    "lat": 53.598103,
    "lng": 10.0419318,
    "url": "https://www.google.com/maps/search/?api=1&query=Antje%20Schnorr-Finck%20Hamburg"
  },
  {
    "name": "Magdalena Tolksdorf",
    "city": "Hamburg",
    "category": "dentist",
    "nameable": false,
    "entity_type": "person",
    "lat": 53.6496196,
    "lng": 10.1175759,
    "url": "https://www.google.com/maps/search/?api=1&query=Magdalena%20Tolksdorf%20Hamburg"
  },
  {
    "name": "Zahnarztpraxis Dr. Dr. Bernward Pupke & Kathrin C. Tröber",
    "city": "Hamburg",
    "category": "dentist",
    "nameable": false,
    "entity_type": "person",
    "lat": 53.5797934,
    "lng": 9.9429122,
    "url": "https://www.google.com/maps/search/?api=1&query=Zahnarztpraxis%20Dr.%20Dr.%20Bernward%20Pupke%20%26%20Kathrin%20C.%20Tr%C3%B6ber%20Hamburg"
  },
  {
    "name": "Dr. med. dent. Raik Ebel",
    "city": "Hamburg",
    "category": "dentist",
    "nameable": false,
    "entity_type": "person",
    "lat": 53.5652721,
    "lng": 9.9836451,
    "url": "https://www.google.com/maps/search/?api=1&query=Dr.%20med.%20dent.%20Raik%20Ebel%20Hamburg"
  },
  {
    "name": "Dr. Moghadam",
    "city": "Hamburg",
    "category": "dentist",
    "nameable": false,
    "entity_type": "person",
    "lat": 53.5348831,
    "lng": 10.0415641,
    "url": "https://www.google.com/maps/search/?api=1&query=Dr.%20Moghadam%20Hamburg"
  },
  {
    "name": "Dr V. Ibing; Dr. Dr. A. Brandes; Dr. Dr. R. Wößner",
    "city": "Hamburg",
    "category": "dentist",
    "nameable": false,
    "entity_type": "person",
    "lat": 53.6251669,
    "lng": 10.1397399,
    "url": "https://www.google.com/maps/search/?api=1&query=Dr%20V.%20Ibing%3B%20Dr.%20Dr.%20A.%20Brandes%3B%20Dr.%20Dr.%20R.%20W%C3%B6%C3%9Fner%20Hamburg"
  },
  {
    "name": "H. Mainka-Delecate",
    "city": "Hamburg",
    "category": "dentist",
    "nameable": false,
    "entity_type": "person",
    "lat": 53.6536372,
    "lng": 10.10548,
    "url": "https://www.google.com/maps/search/?api=1&query=H.%20Mainka-Delecate%20Hamburg"
  },
  {
    "name": "Dr. Rose",
    "city": "Hamburg",
    "category": "dentist",
    "nameable": false,
    "entity_type": "person",
    "lat": 53.6584499,
    "lng": 10.0847577,
    "url": "https://www.google.com/maps/search/?api=1&query=Dr.%20Rose%20Hamburg"
  },
  {
    "name": "Rathje+Triebel",
    "city": "Hamburg",
    "category": "dentist",
    "nameable": true,
    "entity_type": "business",
    "lat": 53.6621483,
    "lng": 10.0805565,
    "url": "https://www.google.com/maps/search/?api=1&query=Rathje%2BTriebel%20Hamburg"
  },
  {
    "name": "Matthias Reschke",
    "city": "Hamburg",
    "category": "dentist",
    "nameable": false,
    "entity_type": "person",
    "lat": 53.6446355,
    "lng": 10.0998136,
    "url": "https://www.google.com/maps/search/?api=1&query=Matthias%20Reschke%20Hamburg"
  },
  {
    "name": "Dr. med. dent. Jan Meinert",
    "city": "Hamburg",
    "category": "dentist",
    "nameable": false,
    "entity_type": "person",
    "lat": 53.6405046,
    "lng": 10.0370154,
    "url": "https://www.google.com/maps/search/?api=1&query=Dr.%20med.%20dent.%20Jan%20Meinert%20Hamburg"
  },
  {
    "name": "Andreas Garleff",
    "city": "Hamburg",
    "category": "dentist",
    "nameable": false,
    "entity_type": "person",
    "lat": 53.6496614,
    "lng": 10.1636269,
    "url": "https://www.google.com/maps/search/?api=1&query=Andreas%20Garleff%20Hamburg"
  },
  {
    "name": "Zahnarztpraxis am Flottbeker Markt",
    "city": "Hamburg",
    "category": "dentist",
    "nameable": true,
    "entity_type": "business",
    "lat": 53.569001,
    "lng": 9.8809872,
    "url": "https://www.google.com/maps/search/?api=1&query=Zahnarztpraxis%20am%20Flottbeker%20Markt%20Hamburg"
  },
  {
    "name": "Holst / Schwieger-Schönebeck",
    "city": "Hamburg",
    "category": "dentist",
    "nameable": false,
    "entity_type": "person",
    "lat": 53.650181,
    "lng": 10.1597922,
    "url": "https://www.google.com/maps/search/?api=1&query=Holst%20%2F%20Schwieger-Sch%C3%B6nebeck%20Hamburg"
  },
  {
    "name": "N. Gemander + N. Shams",
    "city": "Hamburg",
    "category": "dentist",
    "nameable": true,
    "entity_type": "business",
    "lat": 53.6433673,
    "lng": 10.0464718,
    "url": "https://www.google.com/maps/search/?api=1&query=N.%20Gemander%20%2B%20N.%20Shams%20Hamburg"
  },
  {
    "name": "Ihre Zahnärzte - Hamburg Hamm",
    "city": "Hamburg",
    "category": "dentist",
    "nameable": true,
    "entity_type": "business",
    "lat": 53.5607771,
    "lng": 10.0521182,
    "url": "https://www.google.com/maps/search/?api=1&query=Ihre%20Zahn%C3%A4rzte%20-%20Hamburg%20Hamm%20Hamburg"
  },
  {
    "name": "Dr. Alpen",
    "city": "Hamburg",
    "category": "dentist",
    "nameable": false,
    "entity_type": "person",
    "lat": 53.6542316,
    "lng": 10.1106735,
    "url": "https://www.google.com/maps/search/?api=1&query=Dr.%20Alpen%20Hamburg"
  },
  {
    "name": "Zahnarztpraxis Fernando Favita",
    "city": "Hamburg",
    "category": "dentist",
    "nameable": false,
    "entity_type": "person",
    "lat": 53.5258253,
    "lng": 10.0200303,
    "url": "https://www.google.com/maps/search/?api=1&query=Zahnarztpraxis%20Fernando%20Favita%20Hamburg"
  },
  {
    "name": "Dr. Torsten Ebeling",
    "city": "Hamburg",
    "category": "dentist",
    "nameable": false,
    "entity_type": "person",
    "lat": 53.5849645,
    "lng": 10.0244501,
    "url": "https://www.google.com/maps/search/?api=1&query=Dr.%20Torsten%20Ebeling%20Hamburg"
  },
  {
    "name": "Praxis Dr. Papageorgiou",
    "city": "Hamburg",
    "category": "dentist",
    "nameable": false,
    "entity_type": "person",
    "lat": 53.6291174,
    "lng": 10.0236097,
    "url": "https://www.google.com/maps/search/?api=1&query=Praxis%20Dr.%20Papageorgiou%20Hamburg"
  },
  {
    "name": "Dr. med. dent. Katja Müller",
    "city": "Hamburg",
    "category": "dentist",
    "nameable": false,
    "entity_type": "person",
    "lat": 53.628348,
    "lng": 10.0245451,
    "url": "https://www.google.com/maps/search/?api=1&query=Dr.%20med.%20dent.%20Katja%20M%C3%BCller%20Hamburg"
  },
  {
    "name": "Olga Weinstock",
    "city": "Hamburg",
    "category": "dentist",
    "nameable": false,
    "entity_type": "person",
    "lat": 53.4890022,
    "lng": 10.1857743,
    "url": "https://www.google.com/maps/search/?api=1&query=Olga%20Weinstock%20Hamburg"
  },
  {
    "name": "Zahnarzt Dr. med. dent. Schlorf",
    "city": "Hamburg",
    "category": "dentist",
    "nameable": false,
    "entity_type": "person",
    "lat": 53.577705,
    "lng": 9.9713867,
    "url": "https://www.google.com/maps/search/?api=1&query=Zahnarzt%20Dr.%20med.%20dent.%20Schlorf%20Hamburg"
  },
  {
    "name": "Eckard Mißfeld, Britta Mißfeld, Maren Schumacher",
    "city": "Hamburg",
    "category": "dentist",
    "nameable": false,
    "entity_type": "person",
    "lat": 53.4496864,
    "lng": 9.9378685,
    "url": "https://www.google.com/maps/search/?api=1&query=Eckard%20Mi%C3%9Ffeld%2C%20Britta%20Mi%C3%9Ffeld%2C%20Maren%20Schumacher%20Hamburg"
  },
  {
    "name": "Susan Menzel",
    "city": "Hamburg",
    "category": "dentist",
    "nameable": false,
    "entity_type": "person",
    "lat": 53.5548983,
    "lng": 10.0552445,
    "url": "https://www.google.com/maps/search/?api=1&query=Susan%20Menzel%20Hamburg"
  },
  {
    "name": "Dr. Habermann-Wollberg, Dr. Wollberg",
    "city": "Hamburg",
    "category": "dentist",
    "nameable": false,
    "entity_type": "person",
    "lat": 53.5563739,
    "lng": 10.0567763,
    "url": "https://www.google.com/maps/search/?api=1&query=Dr.%20Habermann-Wollberg%2C%20Dr.%20Wollberg%20Hamburg"
  },
  {
    "name": "Sofie Hallaje",
    "city": "Hamburg",
    "category": "dentist",
    "nameable": false,
    "entity_type": "person",
    "lat": 53.5554036,
    "lng": 10.0650217,
    "url": "https://www.google.com/maps/search/?api=1&query=Sofie%20Hallaje%20Hamburg"
  },
  {
    "name": "Dr. Jörn Dolg",
    "city": "Hamburg",
    "category": "dentist",
    "nameable": false,
    "entity_type": "person",
    "lat": 53.5924699,
    "lng": 9.9612912,
    "url": "https://www.google.com/maps/search/?api=1&query=Dr.%20J%C3%B6rn%20Dolg%20Hamburg"
  },
  {
    "name": "Dr. Behring und Partner",
    "city": "Hamburg",
    "category": "dentist",
    "nameable": false,
    "entity_type": "person",
    "lat": 53.5655037,
    "lng": 10.0379066,
    "url": "https://www.google.com/maps/search/?api=1&query=Dr.%20Behring%20und%20Partner%20Hamburg"
  },
  {
    "name": "ZMVZ Dentologicum 275",
    "city": "Hamburg",
    "category": "dentist",
    "nameable": false,
    "entity_type": "person",
    "lat": 53.5597817,
    "lng": 9.9095787,
    "url": "https://www.google.com/maps/search/?api=1&query=ZMVZ%20Dentologicum%20275%20Hamburg"
  },
  {
    "name": "Mundwerk Hamburg",
    "city": "Hamburg",
    "category": "dentist",
    "nameable": true,
    "entity_type": "business",
    "lat": 53.5693151,
    "lng": 9.8985447,
    "url": "https://www.google.com/maps/search/?api=1&query=Mundwerk%20Hamburg%20Hamburg"
  },
  {
    "name": "Dr. med. dent. Bettina Rudolf",
    "city": "Hamburg",
    "category": "dentist",
    "nameable": false,
    "entity_type": "person",
    "lat": 53.4544342,
    "lng": 9.9311217,
    "url": "https://www.google.com/maps/search/?api=1&query=Dr.%20med.%20dent.%20Bettina%20Rudolf%20Hamburg"
  },
  {
    "name": "Dr. R. Sepehr Arfaa",
    "city": "Hamburg",
    "category": "dentist",
    "nameable": false,
    "entity_type": "person",
    "lat": 53.641018,
    "lng": 9.9488359,
    "url": "https://www.google.com/maps/search/?api=1&query=Dr.%20R.%20Sepehr%20Arfaa%20Hamburg"
  },
  {
    "name": "Schroeder",
    "city": "Hamburg",
    "category": "dentist",
    "nameable": true,
    "entity_type": "business",
    "lat": 53.6406716,
    "lng": 9.947855,
    "url": "https://www.google.com/maps/search/?api=1&query=Schroeder%20Hamburg"
  },
  {
    "name": "Dr. Uta v. Bröckel",
    "city": "Hamburg",
    "category": "dentist",
    "nameable": false,
    "entity_type": "person",
    "lat": 53.5828532,
    "lng": 9.8552745,
    "url": "https://www.google.com/maps/search/?api=1&query=Dr.%20Uta%20v.%20Br%C3%B6ckel%20Hamburg"
  },
  {
    "name": "Dr. Volker Bruhn",
    "city": "Hamburg",
    "category": "dentist",
    "nameable": false,
    "entity_type": "person",
    "lat": 53.4721439,
    "lng": 9.8896702,
    "url": "https://www.google.com/maps/search/?api=1&query=Dr.%20Volker%20Bruhn%20Hamburg"
  },
  {
    "name": "Zahnärzte Drs. Kölln & Kollegen",
    "city": "Hamburg",
    "category": "dentist",
    "nameable": false,
    "entity_type": "person",
    "lat": 53.5880996,
    "lng": 9.8495758,
    "url": "https://www.google.com/maps/search/?api=1&query=Zahn%C3%A4rzte%20Drs.%20K%C3%B6lln%20%26%20Kollegen%20Hamburg"
  },
  {
    "name": "Dr. Petra Klostermann",
    "city": "Hamburg",
    "category": "dentist",
    "nameable": false,
    "entity_type": "person",
    "lat": 53.5547742,
    "lng": 9.9888767,
    "url": "https://www.google.com/maps/search/?api=1&query=Dr.%20Petra%20Klostermann%20Hamburg"
  },
  {
    "name": "Zahnarztpraxis Karina Manse",
    "city": "Hamburg",
    "category": "dentist",
    "nameable": false,
    "entity_type": "person",
    "lat": 53.5791767,
    "lng": 10.0654374,
    "url": "https://www.google.com/maps/search/?api=1&query=Zahnarztpraxis%20Karina%20Manse%20Hamburg"
  },
  {
    "name": "Zahnarztpraxis Hendrik Loewen",
    "city": "Hamburg",
    "category": "dentist",
    "nameable": false,
    "entity_type": "person",
    "lat": 53.4455005,
    "lng": 10.2283117,
    "url": "https://www.google.com/maps/search/?api=1&query=Zahnarztpraxis%20Hendrik%20Loewen%20Hamburg"
  },
  {
    "name": "Zahnarztpraxis Dr. Michael Bauer",
    "city": "Hamburg",
    "category": "dentist",
    "nameable": false,
    "entity_type": "person",
    "lat": 53.5712373,
    "lng": 10.1255346,
    "url": "https://www.google.com/maps/search/?api=1&query=Zahnarztpraxis%20Dr.%20Michael%20Bauer%20Hamburg"
  },
  {
    "name": "Zahnarztpraxis Am Kaiserkai",
    "city": "Hamburg",
    "category": "dentist",
    "nameable": true,
    "entity_type": "business",
    "lat": 53.5417694,
    "lng": 9.9924485,
    "url": "https://www.google.com/maps/search/?api=1&query=Zahnarztpraxis%20Am%20Kaiserkai%20Hamburg"
  },
  {
    "name": "Dr. Navid Jalilvand M. Sc.",
    "city": "Hamburg",
    "category": "dentist",
    "nameable": false,
    "entity_type": "person",
    "lat": 53.541511,
    "lng": 9.9877076,
    "url": "https://www.google.com/maps/search/?api=1&query=Dr.%20Navid%20Jalilvand%20M.%20Sc.%20Hamburg"
  },
  {
    "name": "Vera Winter",
    "city": "Hamburg",
    "category": "dentist",
    "nameable": false,
    "entity_type": "person",
    "lat": 53.6597798,
    "lng": 10.0000185,
    "url": "https://www.google.com/maps/search/?api=1&query=Vera%20Winter%20Hamburg"
  },
  {
    "name": "Dr. Janina Neumann",
    "city": "Hamburg",
    "category": "dentist",
    "nameable": false,
    "entity_type": "person",
    "lat": 53.5617462,
    "lng": 10.0183802,
    "url": "https://www.google.com/maps/search/?api=1&query=Dr.%20Janina%20Neumann%20Hamburg"
  },
  {
    "name": "Zahnarztpraxis Elbinsel",
    "city": "Hamburg",
    "category": "dentist",
    "nameable": false,
    "entity_type": "person",
    "lat": 53.4969885,
    "lng": 10.0039843,
    "url": "https://www.google.com/maps/search/?api=1&query=Zahnarztpraxis%20Elbinsel%20Hamburg"
  },
  {
    "name": "Dr. Ulla Schmitz",
    "city": "Hamburg",
    "category": "dentist",
    "nameable": false,
    "entity_type": "person",
    "lat": 53.5880195,
    "lng": 10.0465872,
    "url": "https://www.google.com/maps/search/?api=1&query=Dr.%20Ulla%20Schmitz%20Hamburg"
  },
  {
    "name": "Frank Hoffmann",
    "city": "Hamburg",
    "category": "dentist",
    "nameable": false,
    "entity_type": "person",
    "lat": 53.5741038,
    "lng": 10.0725203,
    "url": "https://www.google.com/maps/search/?api=1&query=Frank%20Hoffmann%20Hamburg"
  },
  {
    "name": "Prophylaxezentrum Zahnkultur",
    "city": "Hamburg",
    "category": "dentist",
    "nameable": false,
    "entity_type": "person",
    "lat": 53.5675144,
    "lng": 9.9881169,
    "url": "https://www.google.com/maps/search/?api=1&query=Prophylaxezentrum%20Zahnkultur%20Hamburg"
  },
  {
    "name": "Y. Hannemüller",
    "city": "Hamburg",
    "category": "dentist",
    "nameable": false,
    "entity_type": "person",
    "lat": 53.5945211,
    "lng": 9.9975996,
    "url": "https://www.google.com/maps/search/?api=1&query=Y.%20Hannem%C3%BCller%20Hamburg"
  },
  {
    "name": "Jana Polak",
    "city": "Hamburg",
    "category": "dentist",
    "nameable": false,
    "entity_type": "person",
    "lat": 53.4771438,
    "lng": 10.1822584,
    "url": "https://www.google.com/maps/search/?api=1&query=Jana%20Polak%20Hamburg"
  },
  {
    "name": "Zahnarztpraxis Dr. M. Quitzke / Dr. J.Kühnemann",
    "city": "Hamburg",
    "category": "dentist",
    "nameable": false,
    "entity_type": "person",
    "lat": 53.6526188,
    "lng": 10.1858255,
    "url": "https://www.google.com/maps/search/?api=1&query=Zahnarztpraxis%20Dr.%20M.%20Quitzke%20%2F%20Dr.%20J.K%C3%BChnemann%20Hamburg"
  },
  {
    "name": "Zeynep Gökce",
    "city": "Hamburg",
    "category": "dentist",
    "nameable": false,
    "entity_type": "person",
    "lat": 53.4863196,
    "lng": 10.2130208,
    "url": "https://www.google.com/maps/search/?api=1&query=Zeynep%20G%C3%B6kce%20Hamburg"
  },
  {
    "name": "Zahnarztpraxis Sülldorf",
    "city": "Hamburg",
    "category": "dentist",
    "nameable": false,
    "entity_type": "person",
    "lat": 53.580211,
    "lng": 9.7959148,
    "url": "https://www.google.com/maps/search/?api=1&query=Zahnarztpraxis%20S%C3%BClldorf%20Hamburg"
  },
  {
    "name": "Dr. Barbara Schlemmer",
    "city": "Hamburg",
    "category": "dentist",
    "nameable": false,
    "entity_type": "person",
    "lat": 53.5496375,
    "lng": 9.993915,
    "url": "https://www.google.com/maps/search/?api=1&query=Dr.%20Barbara%20Schlemmer%20Hamburg"
  },
  {
    "name": "Zahnarztpraxis Susann Herrmann",
    "city": "Hamburg",
    "category": "dentist",
    "nameable": false,
    "entity_type": "person",
    "lat": 53.5950286,
    "lng": 10.0478637,
    "url": "https://www.google.com/maps/search/?api=1&query=Zahnarztpraxis%20Susann%20Herrmann%20Hamburg"
  },
  {
    "name": "Zahnarztpraxis Hoheluft",
    "city": "Hamburg",
    "category": "dentist",
    "nameable": false,
    "entity_type": "person",
    "lat": 53.582539,
    "lng": 9.9744195,
    "url": "https://www.google.com/maps/search/?api=1&query=Zahnarztpraxis%20Hoheluft%20Hamburg"
  },
  {
    "name": "Hanse MKG Hamburg-Bergedorf",
    "city": "Hamburg",
    "category": "dentist",
    "nameable": false,
    "entity_type": "person",
    "lat": 53.4853375,
    "lng": 10.2002081,
    "url": "https://www.google.com/maps/search/?api=1&query=Hanse%20MKG%20Hamburg-Bergedorf%20Hamburg"
  },
  {
    "name": "Dr.med.dent. Holger Czeplak",
    "city": "Hamburg",
    "category": "dentist",
    "nameable": false,
    "entity_type": "person",
    "lat": 53.49793,
    "lng": 10.2037231,
    "url": "https://www.google.com/maps/search/?api=1&query=Dr.med.dent.%20Holger%20Czeplak%20Hamburg"
  },
  {
    "name": "Zahnärztliche Gemeinschaftspraxis Kampnagel",
    "city": "Hamburg",
    "category": "dentist",
    "nameable": true,
    "entity_type": "business",
    "lat": 53.5839511,
    "lng": 10.021886,
    "url": "https://www.google.com/maps/search/?api=1&query=Zahn%C3%A4rztliche%20Gemeinschaftspraxis%20Kampnagel%20Hamburg"
  },
  {
    "name": "Zahnarzt Burat",
    "city": "Hamburg",
    "category": "dentist",
    "nameable": false,
    "entity_type": "person",
    "lat": 53.5863113,
    "lng": 10.0584435,
    "url": "https://www.google.com/maps/search/?api=1&query=Zahnarzt%20Burat%20Hamburg"
  },
  {
    "name": "Zahnarztpraxis Dr. Tabea Retzlaff",
    "city": "Hamburg",
    "category": "dentist",
    "nameable": false,
    "entity_type": "person",
    "lat": 53.5765503,
    "lng": 9.9461882,
    "url": "https://www.google.com/maps/search/?api=1&query=Zahnarztpraxis%20Dr.%20Tabea%20Retzlaff%20Hamburg"
  },
  {
    "name": "Katzschner",
    "city": "Hamburg",
    "category": "dentist",
    "nameable": true,
    "entity_type": "business",
    "lat": 53.5851037,
    "lng": 10.0532812,
    "url": "https://www.google.com/maps/search/?api=1&query=Katzschner%20Hamburg"
  },
  {
    "name": "Klinik ABC-Bogen",
    "city": "Hamburg",
    "category": "dentist",
    "nameable": true,
    "entity_type": "business",
    "lat": 53.5540116,
    "lng": 9.9861135,
    "url": "https://www.google.com/maps/search/?api=1&query=Klinik%20ABC-Bogen%20Hamburg"
  },
  {
    "name": "Darius Motazedi und Kristine Motazedi",
    "city": "Hamburg",
    "category": "dentist",
    "nameable": false,
    "entity_type": "person",
    "lat": 53.57781,
    "lng": 9.9472335,
    "url": "https://www.google.com/maps/search/?api=1&query=Darius%20Motazedi%20und%20Kristine%20Motazedi%20Hamburg"
  },
  {
    "name": "Niloufar Madanikia",
    "city": "Hamburg",
    "category": "dentist",
    "nameable": false,
    "entity_type": "person",
    "lat": 53.5771708,
    "lng": 9.947778,
    "url": "https://www.google.com/maps/search/?api=1&query=Niloufar%20Madanikia%20Hamburg"
  },
  {
    "name": "M. Mossapour",
    "city": "Hamburg",
    "category": "dentist",
    "nameable": false,
    "entity_type": "person",
    "lat": 53.5771268,
    "lng": 9.9486027,
    "url": "https://www.google.com/maps/search/?api=1&query=M.%20Mossapour%20Hamburg"
  },
  {
    "name": "Dr. Astrid Felden",
    "city": "Hamburg",
    "category": "dentist",
    "nameable": false,
    "entity_type": "person",
    "lat": 53.5757973,
    "lng": 9.9512309,
    "url": "https://www.google.com/maps/search/?api=1&query=Dr.%20Astrid%20Felden%20Hamburg"
  },
  {
    "name": "Familien Zahnarztpraxis",
    "city": "Hamburg",
    "category": "dentist",
    "nameable": true,
    "entity_type": "business",
    "lat": 53.5766341,
    "lng": 9.9494535,
    "url": "https://www.google.com/maps/search/?api=1&query=Familien%20Zahnarztpraxis%20Hamburg"
  },
  {
    "name": "Zahnarztpraxis Dr. Irena Pardon",
    "city": "Hamburg",
    "category": "dentist",
    "nameable": false,
    "entity_type": "person",
    "lat": 53.5764037,
    "lng": 9.9507825,
    "url": "https://www.google.com/maps/search/?api=1&query=Zahnarztpraxis%20Dr.%20Irena%20Pardon%20Hamburg"
  },
  {
    "name": "Zahnärztliche Gemeinschaftspraxis Dr. Ingo Dencker, Annkatrin Hofrichter",
    "city": "Hamburg",
    "category": "dentist",
    "nameable": false,
    "entity_type": "person",
    "lat": 53.5761655,
    "lng": 9.9495874,
    "url": "https://www.google.com/maps/search/?api=1&query=Zahn%C3%A4rztliche%20Gemeinschaftspraxis%20Dr.%20Ingo%20Dencker%2C%20Annkatrin%20Hofrichter%20Hamburg"
  },
  {
    "name": "Zauberzähne",
    "city": "Hamburg",
    "category": "dentist",
    "nameable": true,
    "entity_type": "business",
    "lat": 53.5764344,
    "lng": 9.952536,
    "url": "https://www.google.com/maps/search/?api=1&query=Zauberz%C3%A4hne%20Hamburg"
  },
  {
    "name": "Kieferorthopädie",
    "city": "Hamburg",
    "category": "dentist",
    "nameable": true,
    "entity_type": "business",
    "lat": 53.5770479,
    "lng": 9.9515508,
    "url": "https://www.google.com/maps/search/?api=1&query=Kieferorthop%C3%A4die%20Hamburg"
  },
  {
    "name": "Praxis für Zahngesundheit",
    "city": "Hamburg",
    "category": "dentist",
    "nameable": true,
    "entity_type": "business",
    "lat": 53.5771237,
    "lng": 9.9514583,
    "url": "https://www.google.com/maps/search/?api=1&query=Praxis%20f%C3%BCr%20Zahngesundheit%20Hamburg"
  },
  {
    "name": "Dr. med. dent. Christoph Kohl",
    "city": "Hamburg",
    "category": "dentist",
    "nameable": false,
    "entity_type": "person",
    "lat": 53.5778957,
    "lng": 9.9516382,
    "url": "https://www.google.com/maps/search/?api=1&query=Dr.%20med.%20dent.%20Christoph%20Kohl%20Hamburg"
  },
  {
    "name": "Trydent",
    "city": "Hamburg",
    "category": "dentist",
    "nameable": true,
    "entity_type": "business",
    "lat": 53.6318257,
    "lng": 10.0059049,
    "url": "https://www.google.com/maps/search/?api=1&query=Trydent%20Hamburg"
  },
  {
    "name": "Zahn-, Mund- und Kieferheilkunde",
    "city": "Hamburg",
    "category": "dentist",
    "nameable": false,
    "entity_type": "person",
    "lat": 53.5928844,
    "lng": 9.9781125,
    "url": "https://www.google.com/maps/search/?api=1&query=Zahn-%2C%20Mund-%20und%20Kieferheilkunde%20Hamburg"
  },
  {
    "name": "Parodontologie, Präventive Zahnmedizin und Zahnerhaltung",
    "city": "Hamburg",
    "category": "dentist",
    "nameable": false,
    "entity_type": "person",
    "lat": 53.592726,
    "lng": 9.9783031,
    "url": "https://www.google.com/maps/search/?api=1&query=Parodontologie%2C%20Pr%C3%A4ventive%20Zahnmedizin%20und%20Zahnerhaltung%20Hamburg"
  },
  {
    "name": "Zahnärztliche Prothetik",
    "city": "Hamburg",
    "category": "dentist",
    "nameable": false,
    "entity_type": "person",
    "lat": 53.5928612,
    "lng": 9.9783479,
    "url": "https://www.google.com/maps/search/?api=1&query=Zahn%C3%A4rztliche%20Prothetik%20Hamburg"
  },
  {
    "name": "Zahnärztliches Röntgen",
    "city": "Hamburg",
    "category": "dentist",
    "nameable": false,
    "entity_type": "person",
    "lat": 53.5929438,
    "lng": 9.9782488,
    "url": "https://www.google.com/maps/search/?api=1&query=Zahn%C3%A4rztliches%20R%C3%B6ntgen%20Hamburg"
  },
  {
    "name": "Kai Lindeholz",
    "city": "Hamburg",
    "category": "dentist",
    "nameable": false,
    "entity_type": "person",
    "lat": 53.5351663,
    "lng": 9.8774848,
    "url": "https://www.google.com/maps/search/?api=1&query=Kai%20Lindeholz%20Hamburg"
  },
  {
    "name": "Martin Frerichs",
    "city": "Hamburg",
    "category": "dentist",
    "nameable": false,
    "entity_type": "person",
    "lat": 53.5337811,
    "lng": 9.868819,
    "url": "https://www.google.com/maps/search/?api=1&query=Martin%20Frerichs%20Hamburg"
  },
  {
    "name": "Westhäuser Künzle",
    "city": "Hamburg",
    "category": "dentist",
    "nameable": false,
    "entity_type": "person",
    "lat": 53.5774535,
    "lng": 10.08504,
    "url": "https://www.google.com/maps/search/?api=1&query=Westh%C3%A4user%20K%C3%BCnzle%20Hamburg"
  },
  {
    "name": "Kieferorthopädin Fr. Dr Bull",
    "city": "Hamburg",
    "category": "dentist",
    "nameable": false,
    "entity_type": "person",
    "lat": 53.5734564,
    "lng": 10.0697454,
    "url": "https://www.google.com/maps/search/?api=1&query=Kieferorthop%C3%A4din%20Fr.%20Dr%20Bull%20Hamburg"
  },
  {
    "name": "Zahnarzt Dost",
    "city": "Hamburg",
    "category": "dentist",
    "nameable": false,
    "entity_type": "person",
    "lat": 53.5844645,
    "lng": 10.0789069,
    "url": "https://www.google.com/maps/search/?api=1&query=Zahnarzt%20Dost%20Hamburg"
  },
  {
    "name": "Dr. Ebrahimi",
    "city": "Hamburg",
    "category": "dentist",
    "nameable": false,
    "entity_type": "person",
    "lat": 53.575242,
    "lng": 10.0836476,
    "url": "https://www.google.com/maps/search/?api=1&query=Dr.%20Ebrahimi%20Hamburg"
  },
  {
    "name": "Dr. Brünau",
    "city": "Hamburg",
    "category": "dentist",
    "nameable": false,
    "entity_type": "person",
    "lat": 53.5788992,
    "lng": 10.0982483,
    "url": "https://www.google.com/maps/search/?api=1&query=Dr.%20Br%C3%BCnau%20Hamburg"
  },
  {
    "name": "Abadi, Mohammad, Dr. med. dent.",
    "city": "Hamburg",
    "category": "dentist",
    "nameable": false,
    "entity_type": "person",
    "lat": 53.5734098,
    "lng": 10.0640029,
    "url": "https://www.google.com/maps/search/?api=1&query=Abadi%2C%20Mohammad%2C%20Dr.%20med.%20dent.%20Hamburg"
  },
  {
    "name": "Quaree Dental",
    "city": "Hamburg",
    "category": "dentist",
    "nameable": true,
    "entity_type": "business",
    "lat": 53.5730399,
    "lng": 10.064655,
    "url": "https://www.google.com/maps/search/?api=1&query=Quaree%20Dental%20Hamburg"
  },
  {
    "name": "The Smiling Team",
    "city": "Hamburg",
    "category": "dentist",
    "nameable": true,
    "entity_type": "business",
    "lat": 53.6332377,
    "lng": 10.0261596,
    "url": "https://www.google.com/maps/search/?api=1&query=The%20Smiling%20Team%20Hamburg"
  },
  {
    "name": "Kieferorthopädische Praxis Dr. Marion Möller",
    "city": "Hamburg",
    "category": "dentist",
    "nameable": false,
    "entity_type": "person",
    "lat": 53.6528889,
    "lng": 10.1105071,
    "url": "https://www.google.com/maps/search/?api=1&query=Kieferorthop%C3%A4dische%20Praxis%20Dr.%20Marion%20M%C3%B6ller%20Hamburg"
  },
  {
    "name": "Zahnarztpraxis Langenhorn",
    "city": "Hamburg",
    "category": "dentist",
    "nameable": false,
    "entity_type": "person",
    "lat": 53.6599836,
    "lng": 10.0039247,
    "url": "https://www.google.com/maps/search/?api=1&query=Zahnarztpraxis%20Langenhorn%20Hamburg"
  },
  {
    "name": "Zahnarztpraxis im Spectrum am UKE - DR. TIMMERMANN",
    "city": "Hamburg",
    "category": "dentist",
    "nameable": true,
    "entity_type": "business",
    "lat": 53.5901351,
    "lng": 9.9734123,
    "url": "https://www.google.com/maps/search/?api=1&query=Zahnarztpraxis%20im%20Spectrum%20am%20UKE%20-%20DR.%20TIMMERMANN%20Hamburg"
  },
  {
    "name": "Dr. med. Thomas Löbkens",
    "city": "Hamburg",
    "category": "dentist",
    "nameable": false,
    "entity_type": "person",
    "lat": 53.5784134,
    "lng": 10.0150037,
    "url": "https://www.google.com/maps/search/?api=1&query=Dr.%20med.%20Thomas%20L%C3%B6bkens%20Hamburg"
  },
  {
    "name": "Jessica Töpfert",
    "city": "Hamburg",
    "category": "dentist",
    "nameable": false,
    "entity_type": "person",
    "lat": 53.5782574,
    "lng": 10.014703,
    "url": "https://www.google.com/maps/search/?api=1&query=Jessica%20T%C3%B6pfert%20Hamburg"
  },
  {
    "name": "Zahnarztpraxis Heimer",
    "city": "Hamburg",
    "category": "dentist",
    "nameable": false,
    "entity_type": "person",
    "lat": 53.5842348,
    "lng": 10.0649996,
    "url": "https://www.google.com/maps/search/?api=1&query=Zahnarztpraxis%20Heimer%20Hamburg"
  },
  {
    "name": "Götz Behn",
    "city": "Hamburg",
    "category": "dentist",
    "nameable": false,
    "entity_type": "person",
    "lat": 53.5819457,
    "lng": 10.0675297,
    "url": "https://www.google.com/maps/search/?api=1&query=G%C3%B6tz%20Behn%20Hamburg"
  },
  {
    "name": "Houman Tavassol",
    "city": "Hamburg",
    "category": "dentist",
    "nameable": false,
    "entity_type": "person",
    "lat": 53.5865091,
    "lng": 10.0626336,
    "url": "https://www.google.com/maps/search/?api=1&query=Houman%20Tavassol%20Hamburg"
  },
  {
    "name": "Alexander Kurdow",
    "city": "Hamburg",
    "category": "dentist",
    "nameable": false,
    "entity_type": "person",
    "lat": 53.5867764,
    "lng": 10.0411674,
    "url": "https://www.google.com/maps/search/?api=1&query=Alexander%20Kurdow%20Hamburg"
  },
  {
    "name": "MVZ Dentologicum",
    "city": "Hamburg",
    "category": "dentist",
    "nameable": true,
    "entity_type": "business",
    "lat": 53.5599114,
    "lng": 9.9107419,
    "url": "https://www.google.com/maps/search/?api=1&query=MVZ%20Dentologicum%20Hamburg"
  },
  {
    "name": "Wiebke Jungkamp",
    "city": "Hamburg",
    "category": "dentist",
    "nameable": false,
    "entity_type": "person",
    "lat": 53.5935334,
    "lng": 10.0439491,
    "url": "https://www.google.com/maps/search/?api=1&query=Wiebke%20Jungkamp%20Hamburg"
  },
  {
    "name": "Zahnarzt Sevinc",
    "city": "Hamburg",
    "category": "dentist",
    "nameable": false,
    "entity_type": "person",
    "lat": 53.456749,
    "lng": 9.9863503,
    "url": "https://www.google.com/maps/search/?api=1&query=Zahnarzt%20Sevinc%20Hamburg"
  },
  {
    "name": "MKG-Praxis Phoenixcenter",
    "city": "Hamburg",
    "category": "dentist",
    "nameable": false,
    "entity_type": "person",
    "lat": 53.4569068,
    "lng": 9.9873408,
    "url": "https://www.google.com/maps/search/?api=1&query=MKG-Praxis%20Phoenixcenter%20Hamburg"
  },
  {
    "name": "Zahnarztpraxis Knurowska/Knurowski",
    "city": "Hamburg",
    "category": "dentist",
    "nameable": false,
    "entity_type": "person",
    "lat": 53.5833502,
    "lng": 10.0473229,
    "url": "https://www.google.com/maps/search/?api=1&query=Zahnarztpraxis%20Knurowska%2FKnurowski%20Hamburg"
  },
  {
    "name": "Dr. Bernd Manstetten",
    "city": "Hamburg",
    "category": "dentist",
    "nameable": false,
    "entity_type": "person",
    "lat": 53.4914291,
    "lng": 10.01686,
    "url": "https://www.google.com/maps/search/?api=1&query=Dr.%20Bernd%20Manstetten%20Hamburg"
  },
  {
    "name": "Praxis für Zahnheilkunde",
    "city": "Hamburg",
    "category": "dentist",
    "nameable": true,
    "entity_type": "business",
    "lat": 53.5769944,
    "lng": 9.9776029,
    "url": "https://www.google.com/maps/search/?api=1&query=Praxis%20f%C3%BCr%20Zahnheilkunde%20Hamburg"
  },
  {
    "name": "Dr. Armin Hacker",
    "city": "Hamburg",
    "category": "dentist",
    "nameable": false,
    "entity_type": "person",
    "lat": 53.552469,
    "lng": 9.9932579,
    "url": "https://www.google.com/maps/search/?api=1&query=Dr.%20Armin%20Hacker%20Hamburg"
  },
  {
    "name": "Dr. Dr. Jochem Körholz, MKG am Jungfernstieg",
    "city": "Hamburg",
    "category": "dentist",
    "nameable": false,
    "entity_type": "person",
    "lat": 53.5524151,
    "lng": 9.9933343,
    "url": "https://www.google.com/maps/search/?api=1&query=Dr.%20Dr.%20Jochem%20K%C3%B6rholz%2C%20MKG%20am%20Jungfernstieg%20Hamburg"
  },
  {
    "name": "Dr. Never & Partner",
    "city": "Hamburg",
    "category": "dentist",
    "nameable": false,
    "entity_type": "person",
    "lat": 53.5744374,
    "lng": 9.9768806,
    "url": "https://www.google.com/maps/search/?api=1&query=Dr.%20Never%20%26%20Partner%20Hamburg"
  },
  {
    "name": "Gudrun Faesser",
    "city": "Hamburg",
    "category": "dentist",
    "nameable": false,
    "entity_type": "person",
    "lat": 53.6728467,
    "lng": 10.1239632,
    "url": "https://www.google.com/maps/search/?api=1&query=Gudrun%20Faesser%20Hamburg"
  },
  {
    "name": "Ramm",
    "city": "Hamburg",
    "category": "dentist",
    "nameable": true,
    "entity_type": "business",
    "lat": 53.5615619,
    "lng": 9.8114013,
    "url": "https://www.google.com/maps/search/?api=1&query=Ramm%20Hamburg"
  },
  {
    "name": "Dr. Carsten Bahr",
    "city": "Hamburg",
    "category": "dentist",
    "nameable": false,
    "entity_type": "person",
    "lat": 53.6471665,
    "lng": 10.0155962,
    "url": "https://www.google.com/maps/search/?api=1&query=Dr.%20Carsten%20Bahr%20Hamburg"
  },
  {
    "name": "Dentalmedizin Hamburg",
    "city": "Hamburg",
    "category": "dentist",
    "nameable": true,
    "entity_type": "business",
    "lat": 53.5704565,
    "lng": 9.9845716,
    "url": "https://www.google.com/maps/search/?api=1&query=Dentalmedizin%20Hamburg%20Hamburg"
  },
  {
    "name": "Marco Grüter",
    "city": "Hamburg",
    "category": "dentist",
    "nameable": false,
    "entity_type": "person",
    "lat": 53.5690734,
    "lng": 10.0434166,
    "url": "https://www.google.com/maps/search/?api=1&query=Marco%20Gr%C3%BCter%20Hamburg"
  },
  {
    "name": "Zahnarztpraxis Dr. Johannes Ostermayer",
    "city": "Hamburg",
    "category": "dentist",
    "nameable": false,
    "entity_type": "person",
    "lat": 53.6408575,
    "lng": 10.0375126,
    "url": "https://www.google.com/maps/search/?api=1&query=Zahnarztpraxis%20Dr.%20Johannes%20Ostermayer%20Hamburg"
  },
  {
    "name": "Zahnmedizin am Grindelberg",
    "city": "Hamburg",
    "category": "dentist",
    "nameable": true,
    "entity_type": "business",
    "lat": 53.5726784,
    "lng": 9.9779162,
    "url": "https://www.google.com/maps/search/?api=1&query=Zahnmedizin%20am%20Grindelberg%20Hamburg"
  },
  {
    "name": "Zahnarztpraxis Stohrer",
    "city": "Hamburg",
    "category": "dentist",
    "nameable": false,
    "entity_type": "person",
    "lat": 53.5786632,
    "lng": 10.0610762,
    "url": "https://www.google.com/maps/search/?api=1&query=Zahnarztpraxis%20Stohrer%20Hamburg"
  },
  {
    "name": "Dr. Engeln & Schomaker",
    "city": "Hamburg",
    "category": "dentist",
    "nameable": false,
    "entity_type": "person",
    "lat": 53.6525153,
    "lng": 10.0921667,
    "url": "https://www.google.com/maps/search/?api=1&query=Dr.%20Engeln%20%26%20Schomaker%20Hamburg"
  },
  {
    "name": "Kieferorthopäden am Hammer Park",
    "city": "Hamburg",
    "category": "dentist",
    "nameable": false,
    "entity_type": "person",
    "lat": 53.557769,
    "lng": 10.0509397,
    "url": "https://www.google.com/maps/search/?api=1&query=Kieferorthop%C3%A4den%20am%20Hammer%20Park%20Hamburg"
  },
  {
    "name": "Zahnärzte am Hammer Park",
    "city": "Hamburg",
    "category": "dentist",
    "nameable": false,
    "entity_type": "person",
    "lat": 53.557753,
    "lng": 10.050925,
    "url": "https://www.google.com/maps/search/?api=1&query=Zahn%C3%A4rzte%20am%20Hammer%20Park%20Hamburg"
  },
  {
    "name": "Gemeinschaftspraxis Rainer Kraus & René Kanniga",
    "city": "Hamburg",
    "category": "dentist",
    "nameable": false,
    "entity_type": "person",
    "lat": 53.5621441,
    "lng": 10.056183,
    "url": "https://www.google.com/maps/search/?api=1&query=Gemeinschaftspraxis%20Rainer%20Kraus%20%26%20Ren%C3%A9%20Kanniga%20Hamburg"
  },
  {
    "name": "Zahnarzt Dr. Dettmann",
    "city": "Hamburg",
    "category": "dentist",
    "nameable": false,
    "entity_type": "person",
    "lat": 53.5841574,
    "lng": 9.9736524,
    "url": "https://www.google.com/maps/search/?api=1&query=Zahnarzt%20Dr.%20Dettmann%20Hamburg"
  },
  {
    "name": "Zahnarztpraxis Dr. Ingrid Höhner",
    "city": "Hamburg",
    "category": "dentist",
    "nameable": false,
    "entity_type": "person",
    "lat": 53.5782606,
    "lng": 9.9894633,
    "url": "https://www.google.com/maps/search/?api=1&query=Zahnarztpraxis%20Dr.%20Ingrid%20H%C3%B6hner%20Hamburg"
  },
  {
    "name": "Dr. Drong & Team",
    "city": "Hamburg",
    "category": "dentist",
    "nameable": false,
    "entity_type": "person",
    "lat": 53.5614626,
    "lng": 9.9490496,
    "url": "https://www.google.com/maps/search/?api=1&query=Dr.%20Drong%20%26%20Team%20Hamburg"
  },
  {
    "name": "Zahnarztpraxis MudiDent",
    "city": "Hamburg",
    "category": "dentist",
    "nameable": false,
    "entity_type": "person",
    "lat": 53.5502116,
    "lng": 10.0790998,
    "url": "https://www.google.com/maps/search/?api=1&query=Zahnarztpraxis%20MudiDent%20Hamburg"
  },
  {
    "name": "LS praxis",
    "city": "Hamburg",
    "category": "dentist",
    "nameable": true,
    "entity_type": "business",
    "lat": 53.5901304,
    "lng": 9.9866257,
    "url": "https://www.google.com/maps/search/?api=1&query=LS%20praxis%20Hamburg"
  },
  {
    "name": "Schwegmann | Janz - Praxis für Zahnheilkunde",
    "city": "Hamburg",
    "category": "dentist",
    "nameable": true,
    "entity_type": "business",
    "lat": 53.5563099,
    "lng": 9.8820563,
    "url": "https://www.google.com/maps/search/?api=1&query=Schwegmann%20%7C%20Janz%20-%20Praxis%20f%C3%BCr%20Zahnheilkunde%20Hamburg"
  },
  {
    "name": "Zahnarztpraxis Dr. Nicola Albern-Sühwold",
    "city": "Hamburg",
    "category": "dentist",
    "nameable": false,
    "entity_type": "person",
    "lat": 53.5561306,
    "lng": 9.8892617,
    "url": "https://www.google.com/maps/search/?api=1&query=Zahnarztpraxis%20Dr.%20Nicola%20Albern-S%C3%BChwold%20Hamburg"
  },
  {
    "name": "Evgenij Veprik",
    "city": "Hamburg",
    "category": "dentist",
    "nameable": false,
    "entity_type": "person",
    "lat": 53.5412817,
    "lng": 10.1022611,
    "url": "https://www.google.com/maps/search/?api=1&query=Evgenij%20Veprik%20Hamburg"
  },
  {
    "name": "Zahnarztpraxis am Husarenhof",
    "city": "Hamburg",
    "category": "dentist",
    "nameable": true,
    "entity_type": "business",
    "lat": 53.5632557,
    "lng": 10.0782613,
    "url": "https://www.google.com/maps/search/?api=1&query=Zahnarztpraxis%20am%20Husarenhof%20Hamburg"
  },
  {
    "name": "Dr. Ahmad Lighvani",
    "city": "Hamburg",
    "category": "dentist",
    "nameable": false,
    "entity_type": "person",
    "lat": 53.5518617,
    "lng": 10.0954641,
    "url": "https://www.google.com/maps/search/?api=1&query=Dr.%20Ahmad%20Lighvani%20Hamburg"
  },
  {
    "name": "Jan Paehlke & Kollegen",
    "city": "Hamburg",
    "category": "dentist",
    "nameable": false,
    "entity_type": "person",
    "lat": 53.4969714,
    "lng": 10.2089148,
    "url": "https://www.google.com/maps/search/?api=1&query=Jan%20Paehlke%20%26%20Kollegen%20Hamburg"
  },
  {
    "name": "Zahnarztpraxis Dr. med. Martina Schreyack",
    "city": "Hamburg",
    "category": "dentist",
    "nameable": false,
    "entity_type": "person",
    "lat": 53.5962192,
    "lng": 10.0437074,
    "url": "https://www.google.com/maps/search/?api=1&query=Zahnarztpraxis%20Dr.%20med.%20Martina%20Schreyack%20Hamburg"
  },
  {
    "name": "Vitali Grasmück",
    "city": "Hamburg",
    "category": "dentist",
    "nameable": false,
    "entity_type": "person",
    "lat": 53.5391046,
    "lng": 10.1067715,
    "url": "https://www.google.com/maps/search/?api=1&query=Vitali%20Grasm%C3%BCck%20Hamburg"
  },
  {
    "name": "Zahnarztpraxis Westend",
    "city": "Hamburg",
    "category": "dentist",
    "nameable": false,
    "entity_type": "person",
    "lat": 53.5577957,
    "lng": 9.9250187,
    "url": "https://www.google.com/maps/search/?api=1&query=Zahnarztpraxis%20Westend%20Hamburg"
  },
  {
    "name": "Gemeinschaftspraxis A. Witte. S. Akbar-Poy",
    "city": "Hamburg",
    "category": "dentist",
    "nameable": true,
    "entity_type": "business",
    "lat": 53.5390664,
    "lng": 10.1083931,
    "url": "https://www.google.com/maps/search/?api=1&query=Gemeinschaftspraxis%20A.%20Witte.%20S.%20Akbar-Poy%20Hamburg"
  },
  {
    "name": "Smilike Hamburg",
    "city": "Hamburg",
    "category": "dentist",
    "nameable": true,
    "entity_type": "business",
    "lat": 53.5570218,
    "lng": 9.9899718,
    "url": "https://www.google.com/maps/search/?api=1&query=Smilike%20Hamburg%20Hamburg"
  },
  {
    "name": "Zahnarztpraxis Joachim Ernst",
    "city": "Hamburg",
    "category": "dentist",
    "nameable": false,
    "entity_type": "person",
    "lat": 53.580258,
    "lng": 10.0682645,
    "url": "https://www.google.com/maps/search/?api=1&query=Zahnarztpraxis%20Joachim%20Ernst%20Hamburg"
  },
  {
    "name": "Zahnarztpraxis Flottbeker Mühle",
    "city": "Hamburg",
    "category": "dentist",
    "nameable": false,
    "entity_type": "person",
    "lat": 53.5712582,
    "lng": 9.8715034,
    "url": "https://www.google.com/maps/search/?api=1&query=Zahnarztpraxis%20Flottbeker%20M%C3%BChle%20Hamburg"
  },
  {
    "name": "ZahnKunst Dr. K. Maroofi & Kollegen",
    "city": "Hamburg",
    "category": "dentist",
    "nameable": false,
    "entity_type": "person",
    "lat": 53.4907459,
    "lng": 10.2068502,
    "url": "https://www.google.com/maps/search/?api=1&query=ZahnKunst%20Dr.%20K.%20Maroofi%20%26%20Kollegen%20Hamburg"
  },
  {
    "name": "Wilhelm & Wilkens",
    "city": "Hamburg",
    "category": "dentist",
    "nameable": false,
    "entity_type": "person",
    "lat": 53.563629,
    "lng": 9.8151043,
    "url": "https://www.google.com/maps/search/?api=1&query=Wilhelm%20%26%20Wilkens%20Hamburg"
  },
  {
    "name": "Zahnarztpraxis Blankezähne",
    "city": "Hamburg",
    "category": "dentist",
    "nameable": false,
    "entity_type": "person",
    "lat": 53.5635328,
    "lng": 9.8152598,
    "url": "https://www.google.com/maps/search/?api=1&query=Zahnarztpraxis%20Blankez%C3%A4hne%20Hamburg"
  },
  {
    "name": "Dr Vera Leisentritt",
    "city": "Hamburg",
    "category": "dentist",
    "nameable": false,
    "entity_type": "person",
    "lat": 53.5565809,
    "lng": 9.8451437,
    "url": "https://www.google.com/maps/search/?api=1&query=Dr%20Vera%20Leisentritt%20Hamburg"
  },
  {
    "name": "Zahnarztpraxis Lohbrügge",
    "city": "Hamburg",
    "category": "dentist",
    "nameable": false,
    "entity_type": "person",
    "lat": 53.5037302,
    "lng": 10.2121928,
    "url": "https://www.google.com/maps/search/?api=1&query=Zahnarztpraxis%20Lohbr%C3%BCgge%20Hamburg"
  },
  {
    "name": "Dr. Dorothea Crüsemann",
    "city": "Hamburg",
    "category": "dentist",
    "nameable": false,
    "entity_type": "person",
    "lat": 53.5412224,
    "lng": 10.1011714,
    "url": "https://www.google.com/maps/search/?api=1&query=Dr.%20Dorothea%20Cr%C3%BCsemann%20Hamburg"
  },
  {
    "name": "Dr. Dr. Otto Vincent Strobl",
    "city": "Hamburg",
    "category": "dentist",
    "nameable": false,
    "entity_type": "person",
    "lat": 53.4586743,
    "lng": 9.9825611,
    "url": "https://www.google.com/maps/search/?api=1&query=Dr.%20Dr.%20Otto%20Vincent%20Strobl%20Hamburg"
  },
  {
    "name": "Dr. Fromhagen",
    "city": "Hamburg",
    "category": "dentist",
    "nameable": false,
    "entity_type": "person",
    "lat": 53.4600339,
    "lng": 9.9830552,
    "url": "https://www.google.com/maps/search/?api=1&query=Dr.%20Fromhagen%20Hamburg"
  },
  {
    "name": "Zahnarzt Dr Merdzani",
    "city": "Hamburg",
    "category": "dentist",
    "nameable": false,
    "entity_type": "person",
    "lat": 53.4610454,
    "lng": 9.9815896,
    "url": "https://www.google.com/maps/search/?api=1&query=Zahnarzt%20Dr%20Merdzani%20Hamburg"
  },
  {
    "name": "Dr Gelbert und Lebedew",
    "city": "Hamburg",
    "category": "dentist",
    "nameable": false,
    "entity_type": "person",
    "lat": 53.4606799,
    "lng": 9.9819553,
    "url": "https://www.google.com/maps/search/?api=1&query=Dr%20Gelbert%20und%20Lebedew%20Hamburg"
  },
  {
    "name": "Natalie Herzel",
    "city": "Hamburg",
    "category": "dentist",
    "nameable": false,
    "entity_type": "person",
    "lat": 53.5536397,
    "lng": 10.0662361,
    "url": "https://www.google.com/maps/search/?api=1&query=Natalie%20Herzel%20Hamburg"
  },
  {
    "name": "Dr. Stefan Meyer, Thomas Ripp",
    "city": "Hamburg",
    "category": "dentist",
    "nameable": false,
    "entity_type": "person",
    "lat": 53.4794131,
    "lng": 9.8749032,
    "url": "https://www.google.com/maps/search/?api=1&query=Dr.%20Stefan%20Meyer%2C%20Thomas%20Ripp%20Hamburg"
  },
  {
    "name": "Michael Stumpe",
    "city": "Hamburg",
    "category": "dentist",
    "nameable": false,
    "entity_type": "person",
    "lat": 53.6455571,
    "lng": 10.0131142,
    "url": "https://www.google.com/maps/search/?api=1&query=Michael%20Stumpe%20Hamburg"
  },
  {
    "name": "Zahnkosmetik MundGerecht",
    "city": "Hamburg",
    "category": "dentist",
    "nameable": false,
    "entity_type": "person",
    "lat": 53.5801188,
    "lng": 9.9394539,
    "url": "https://www.google.com/maps/search/?api=1&query=Zahnkosmetik%20MundGerecht%20Hamburg"
  },
  {
    "name": "Dr. Frank Schöpe",
    "city": "Hamburg",
    "category": "dentist",
    "nameable": false,
    "entity_type": "person",
    "lat": 53.478284,
    "lng": 9.8888824,
    "url": "https://www.google.com/maps/search/?api=1&query=Dr.%20Frank%20Sch%C3%B6pe%20Hamburg"
  },
  {
    "name": "Karen Jensen & Dr. Yvonne Schenk",
    "city": "Hamburg",
    "category": "dentist",
    "nameable": false,
    "entity_type": "person",
    "lat": 53.5631563,
    "lng": 9.9196674,
    "url": "https://www.google.com/maps/search/?api=1&query=Karen%20Jensen%20%26%20Dr.%20Yvonne%20Schenk%20Hamburg"
  },
  {
    "name": "Zahnarztpraxis Kim",
    "city": "Hamburg",
    "category": "dentist",
    "nameable": false,
    "entity_type": "person",
    "lat": 53.5818588,
    "lng": 10.0623849,
    "url": "https://www.google.com/maps/search/?api=1&query=Zahnarztpraxis%20Kim%20Hamburg"
  },
  {
    "name": "Praxis für Zahnheilkunde Friemann / Konradi",
    "city": "Hamburg",
    "category": "dentist",
    "nameable": false,
    "entity_type": "person",
    "lat": 53.5797259,
    "lng": 10.0416535,
    "url": "https://www.google.com/maps/search/?api=1&query=Praxis%20f%C3%BCr%20Zahnheilkunde%20Friemann%20%2F%20Konradi%20Hamburg"
  },
  {
    "name": "Zahnarztpraxis Friedrichsberg",
    "city": "Hamburg",
    "category": "dentist",
    "nameable": false,
    "entity_type": "person",
    "lat": 53.5784658,
    "lng": 10.0577655,
    "url": "https://www.google.com/maps/search/?api=1&query=Zahnarztpraxis%20Friedrichsberg%20Hamburg"
  },
  {
    "name": "Dr. Lenzner",
    "city": "Hamburg",
    "category": "dentist",
    "nameable": false,
    "entity_type": "person",
    "lat": 53.5670009,
    "lng": 10.0440897,
    "url": "https://www.google.com/maps/search/?api=1&query=Dr.%20Lenzner%20Hamburg"
  },
  {
    "name": "Zahnarztpraxis Wandsbek-Markt Dr. Laumann und Stüber",
    "city": "Hamburg",
    "category": "dentist",
    "nameable": false,
    "entity_type": "person",
    "lat": 53.5718712,
    "lng": 10.0647172,
    "url": "https://www.google.com/maps/search/?api=1&query=Zahnarztpraxis%20Wandsbek-Markt%20Dr.%20Laumann%20und%20St%C3%BCber%20Hamburg"
  },
  {
    "name": "Dr. med. dent. Katarina Hanitsch",
    "city": "Hamburg",
    "category": "dentist",
    "nameable": false,
    "entity_type": "person",
    "lat": 53.5876353,
    "lng": 9.9856604,
    "url": "https://www.google.com/maps/search/?api=1&query=Dr.%20med.%20dent.%20Katarina%20Hanitsch%20Hamburg"
  },
  {
    "name": "Zahnarztpraxis Mareike Aßmus",
    "city": "Hamburg",
    "category": "dentist",
    "nameable": false,
    "entity_type": "person",
    "lat": 53.5822933,
    "lng": 9.939473,
    "url": "https://www.google.com/maps/search/?api=1&query=Zahnarztpraxis%20Mareike%20A%C3%9Fmus%20Hamburg"
  },
  {
    "name": "Mustafa Mattin Nekzai",
    "city": "Hamburg",
    "category": "dentist",
    "nameable": false,
    "entity_type": "person",
    "lat": 53.5890599,
    "lng": 10.0760501,
    "url": "https://www.google.com/maps/search/?api=1&query=Mustafa%20Mattin%20Nekzai%20Hamburg"
  },
  {
    "name": "Zahnteam Bergstedt",
    "city": "Hamburg",
    "category": "dentist",
    "nameable": false,
    "entity_type": "person",
    "lat": 53.6698776,
    "lng": 10.143308,
    "url": "https://www.google.com/maps/search/?api=1&query=Zahnteam%20Bergstedt%20Hamburg"
  },
  {
    "name": "ZahnVitalis",
    "city": "Hamburg",
    "category": "dentist",
    "nameable": true,
    "entity_type": "business",
    "lat": 53.5944491,
    "lng": 9.9448106,
    "url": "https://www.google.com/maps/search/?api=1&query=ZahnVitalis%20Hamburg"
  },
  {
    "name": "Zahnärztliche Praxis Jörn Bender",
    "city": "Hamburg",
    "category": "dentist",
    "nameable": false,
    "entity_type": "person",
    "lat": 53.5887578,
    "lng": 10.0460994,
    "url": "https://www.google.com/maps/search/?api=1&query=Zahn%C3%A4rztliche%20Praxis%20J%C3%B6rn%20Bender%20Hamburg"
  },
  {
    "name": "Praxis Erbeling",
    "city": "Hamburg",
    "category": "dentist",
    "nameable": true,
    "entity_type": "business",
    "lat": 53.6747399,
    "lng": 10.0260503,
    "url": "https://www.google.com/maps/search/?api=1&query=Praxis%20Erbeling%20Hamburg"
  },
  {
    "name": "Zahnärztlicher Notdienst",
    "city": "Hamburg",
    "category": "dentist",
    "nameable": false,
    "entity_type": "person",
    "lat": 53.5597397,
    "lng": 9.9602056,
    "url": "https://www.google.com/maps/search/?api=1&query=Zahn%C3%A4rztlicher%20Notdienst%20Hamburg"
  },
  {
    "name": "Dr. med. dent. Anne Kathrin Kloth",
    "city": "Hamburg",
    "category": "dentist",
    "nameable": false,
    "entity_type": "person",
    "lat": 53.6184355,
    "lng": 9.9504215,
    "url": "https://www.google.com/maps/search/?api=1&query=Dr.%20med.%20dent.%20Anne%20Kathrin%20Kloth%20Hamburg"
  },
  {
    "name": "Zahn- & Implantatzentrum Dr. Brüchmann & Kollegen",
    "city": "Hamburg",
    "category": "dentist",
    "nameable": false,
    "entity_type": "person",
    "lat": 53.6404662,
    "lng": 9.9483857,
    "url": "https://www.google.com/maps/search/?api=1&query=Zahn-%20%26%20Implantatzentrum%20Dr.%20Br%C3%BCchmann%20%26%20Kollegen%20Hamburg"
  },
  {
    "name": "Praxis Kampff",
    "city": "Hamburg",
    "category": "dentist",
    "nameable": true,
    "entity_type": "business",
    "lat": 53.5792815,
    "lng": 10.0714414,
    "url": "https://www.google.com/maps/search/?api=1&query=Praxis%20Kampff%20Hamburg"
  },
  {
    "name": "Praxis für Zahnheilkunde (Dr. Michael Hoffmann)",
    "city": "Hamburg",
    "category": "dentist",
    "nameable": false,
    "entity_type": "person",
    "lat": 53.6051271,
    "lng": 10.1561643,
    "url": "https://www.google.com/maps/search/?api=1&query=Praxis%20f%C3%BCr%20Zahnheilkunde%20(Dr.%20Michael%20Hoffmann)%20Hamburg"
  },
  {
    "name": "Axel Bruhn",
    "city": "Hamburg",
    "category": "dentist",
    "nameable": false,
    "entity_type": "person",
    "lat": 53.4642029,
    "lng": 9.9556778,
    "url": "https://www.google.com/maps/search/?api=1&query=Axel%20Bruhn%20Hamburg"
  },
  {
    "name": "Zahnarztpraxis Dr. Ines von Stamm",
    "city": "Hamburg",
    "category": "dentist",
    "nameable": false,
    "entity_type": "person",
    "lat": 53.5833312,
    "lng": 9.9470119,
    "url": "https://www.google.com/maps/search/?api=1&query=Zahnarztpraxis%20Dr.%20Ines%20von%20Stamm%20Hamburg"
  },
  {
    "name": "Zahnarztpraxis Winterhude",
    "city": "Hamburg",
    "category": "dentist",
    "nameable": false,
    "entity_type": "person",
    "lat": 53.5883843,
    "lng": 10.0037648,
    "url": "https://www.google.com/maps/search/?api=1&query=Zahnarztpraxis%20Winterhude%20Hamburg"
  },
  {
    "name": "Die Zahnärztinnen",
    "city": "Hamburg",
    "category": "dentist",
    "nameable": true,
    "entity_type": "business",
    "lat": 53.5735954,
    "lng": 9.9616669,
    "url": "https://www.google.com/maps/search/?api=1&query=Die%20Zahn%C3%A4rztinnen%20Hamburg"
  },
  {
    "name": "Dr. med. dent. Richard Krause",
    "city": "Hamburg",
    "category": "dentist",
    "nameable": false,
    "entity_type": "person",
    "lat": 53.4582354,
    "lng": 9.9808687,
    "url": "https://www.google.com/maps/search/?api=1&query=Dr.%20med.%20dent.%20Richard%20Krause%20Hamburg"
  },
  {
    "name": "Praxis Sülldorf",
    "city": "Hamburg",
    "category": "dentist",
    "nameable": true,
    "entity_type": "business",
    "lat": 53.5809299,
    "lng": 9.7962994,
    "url": "https://www.google.com/maps/search/?api=1&query=Praxis%20S%C3%BClldorf%20Hamburg"
  },
  {
    "name": "Dr. Isabel Dummler",
    "city": "Hamburg",
    "category": "dentist",
    "nameable": false,
    "entity_type": "person",
    "lat": 53.5673899,
    "lng": 9.9810343,
    "url": "https://www.google.com/maps/search/?api=1&query=Dr.%20Isabel%20Dummler%20Hamburg"
  },
  {
    "name": "Zahnarztpraxis Viola Spruth",
    "city": "Hamburg",
    "category": "dentist",
    "nameable": false,
    "entity_type": "person",
    "lat": 53.6033316,
    "lng": 10.0409004,
    "url": "https://www.google.com/maps/search/?api=1&query=Zahnarztpraxis%20Viola%20Spruth%20Hamburg"
  },
  {
    "name": "Ärztehaus",
    "city": "Hamburg",
    "category": "doctors",
    "nameable": true,
    "entity_type": "business",
    "lat": 53.6481069,
    "lng": 10.1629511,
    "url": "https://www.google.com/maps/search/?api=1&query=%C3%84rztehaus%20Hamburg"
  },
  {
    "name": "Dr. med. Jürgen R. Laubsch",
    "city": "Hamburg",
    "category": "doctors",
    "nameable": false,
    "entity_type": "person",
    "lat": 53.641073,
    "lng": 10.0850339,
    "url": "https://www.google.com/maps/search/?api=1&query=Dr.%20med.%20J%C3%BCrgen%20R.%20Laubsch%20Hamburg"
  },
  {
    "name": "Silke Engelder",
    "city": "Hamburg",
    "category": "doctors",
    "nameable": false,
    "entity_type": "person",
    "lat": 53.5974792,
    "lng": 10.0423462,
    "url": "https://www.google.com/maps/search/?api=1&query=Silke%20Engelder%20Hamburg"
  },
  {
    "name": "H. Keyany",
    "city": "Hamburg",
    "category": "doctors",
    "nameable": false,
    "entity_type": "person",
    "lat": 53.5967079,
    "lng": 10.0428576,
    "url": "https://www.google.com/maps/search/?api=1&query=H.%20Keyany%20Hamburg"
  },
  {
    "name": "Bernhard Nast",
    "city": "Hamburg",
    "category": "doctors",
    "nameable": false,
    "entity_type": "person",
    "lat": 53.5966557,
    "lng": 10.0428861,
    "url": "https://www.google.com/maps/search/?api=1&query=Bernhard%20Nast%20Hamburg"
  },
  {
    "name": "Asklepios Westklinikum Hamburg",
    "city": "Hamburg",
    "category": "doctors",
    "nameable": false,
    "entity_type": "person",
    "lat": 53.5882162,
    "lng": 9.8490943,
    "url": "https://www.google.com/maps/search/?api=1&query=Asklepios%20Westklinikum%20Hamburg%20Hamburg"
  },
  {
    "name": "Dr. med. Mirweys Sina",
    "city": "Hamburg",
    "category": "doctors",
    "nameable": false,
    "entity_type": "person",
    "lat": 53.5842501,
    "lng": 9.854401,
    "url": "https://www.google.com/maps/search/?api=1&query=Dr.%20med.%20Mirweys%20Sina%20Hamburg"
  },
  {
    "name": "Praxis Haddad",
    "city": "Hamburg",
    "category": "doctors",
    "nameable": true,
    "entity_type": "business",
    "lat": 53.5141826,
    "lng": 9.9869586,
    "url": "https://www.google.com/maps/search/?api=1&query=Praxis%20Haddad%20Hamburg"
  },
  {
    "name": "Drobik",
    "city": "Hamburg",
    "category": "doctors",
    "nameable": true,
    "entity_type": "business",
    "lat": 53.5349251,
    "lng": 10.043114,
    "url": "https://www.google.com/maps/search/?api=1&query=Drobik%20Hamburg"
  },
  {
    "name": "Gemeinschaftspraxis Dr. Böttcher, Dr. Kschowak, Dr. Strobel",
    "city": "Hamburg",
    "category": "doctors",
    "nameable": false,
    "entity_type": "person",
    "lat": 53.5750211,
    "lng": 9.9582998,
    "url": "https://www.google.com/maps/search/?api=1&query=Gemeinschaftspraxis%20Dr.%20B%C3%B6ttcher%2C%20Dr.%20Kschowak%2C%20Dr.%20Strobel%20Hamburg"
  },
  {
    "name": "Dr. Andrea Sörens",
    "city": "Hamburg",
    "category": "doctors",
    "nameable": false,
    "entity_type": "person",
    "lat": 53.5728,
    "lng": 9.9575694,
    "url": "https://www.google.com/maps/search/?api=1&query=Dr.%20Andrea%20S%C3%B6rens%20Hamburg"
  },
  {
    "name": "Niels Schlüter",
    "city": "Hamburg",
    "category": "doctors",
    "nameable": false,
    "entity_type": "person",
    "lat": 53.5986382,
    "lng": 9.8617101,
    "url": "https://www.google.com/maps/search/?api=1&query=Niels%20Schl%C3%BCter%20Hamburg"
  },
  {
    "name": "Praxis am Marktplatz",
    "city": "Hamburg",
    "category": "doctors",
    "nameable": true,
    "entity_type": "business",
    "lat": 53.5338833,
    "lng": 10.0389634,
    "url": "https://www.google.com/maps/search/?api=1&query=Praxis%20am%20Marktplatz%20Hamburg"
  },
  {
    "name": "Onkologie Lerchenfeld",
    "city": "Hamburg",
    "category": "doctors",
    "nameable": false,
    "entity_type": "person",
    "lat": 53.5694903,
    "lng": 10.0285217,
    "url": "https://www.google.com/maps/search/?api=1&query=Onkologie%20Lerchenfeld%20Hamburg"
  },
  {
    "name": "ICH Grindel",
    "city": "Hamburg",
    "category": "doctors",
    "nameable": false,
    "entity_type": "person",
    "lat": 53.5659024,
    "lng": 9.9819387,
    "url": "https://www.google.com/maps/search/?api=1&query=ICH%20Grindel%20Hamburg"
  },
  {
    "name": "Dr. Stüven",
    "city": "Hamburg",
    "category": "doctors",
    "nameable": false,
    "entity_type": "person",
    "lat": 53.4770661,
    "lng": 10.1822371,
    "url": "https://www.google.com/maps/search/?api=1&query=Dr.%20St%C3%BCven%20Hamburg"
  },
  {
    "name": "Praxis für Psychotherapie",
    "city": "Hamburg",
    "category": "doctors",
    "nameable": true,
    "entity_type": "business",
    "lat": 53.6532261,
    "lng": 10.1103362,
    "url": "https://www.google.com/maps/search/?api=1&query=Praxis%20f%C3%BCr%20Psychotherapie%20Hamburg"
  },
  {
    "name": "Naturheilpraxis Heinz-Peter Böttner",
    "city": "Hamburg",
    "category": "doctors",
    "nameable": false,
    "entity_type": "person",
    "lat": 53.6493729,
    "lng": 10.1043178,
    "url": "https://www.google.com/maps/search/?api=1&query=Naturheilpraxis%20Heinz-Peter%20B%C3%B6ttner%20Hamburg"
  },
  {
    "name": "Hammersen",
    "city": "Hamburg",
    "category": "doctors",
    "nameable": true,
    "entity_type": "business",
    "lat": 53.6616522,
    "lng": 10.0854783,
    "url": "https://www.google.com/maps/search/?api=1&query=Hammersen%20Hamburg"
  },
  {
    "name": "Allgemeinmedizin Saskia Sprenger",
    "city": "Hamburg",
    "category": "doctors",
    "nameable": false,
    "entity_type": "person",
    "lat": 53.641296,
    "lng": 10.0800159,
    "url": "https://www.google.com/maps/search/?api=1&query=Allgemeinmedizin%20Saskia%20Sprenger%20Hamburg"
  },
  {
    "name": "Joachim Homann",
    "city": "Hamburg",
    "category": "doctors",
    "nameable": false,
    "entity_type": "person",
    "lat": 53.6784984,
    "lng": 10.0000466,
    "url": "https://www.google.com/maps/search/?api=1&query=Joachim%20Homann%20Hamburg"
  },
  {
    "name": "Frauenärztin Silke Hantelmann",
    "city": "Hamburg",
    "category": "doctors",
    "nameable": false,
    "entity_type": "person",
    "lat": 53.6785776,
    "lng": 10.0000261,
    "url": "https://www.google.com/maps/search/?api=1&query=Frauen%C3%A4rztin%20Silke%20Hantelmann%20Hamburg"
  },
  {
    "name": "Hausarztpraxis am Siemersplatz",
    "city": "Hamburg",
    "category": "doctors",
    "nameable": true,
    "entity_type": "business",
    "lat": 53.5993569,
    "lng": 9.9639645,
    "url": "https://www.google.com/maps/search/?api=1&query=Hausarztpraxis%20am%20Siemersplatz%20Hamburg"
  },
  {
    "name": "Dr. med. Albrecht Leopold",
    "city": "Hamburg",
    "category": "doctors",
    "nameable": false,
    "entity_type": "person",
    "lat": 53.4659525,
    "lng": 9.9622552,
    "url": "https://www.google.com/maps/search/?api=1&query=Dr.%20med.%20Albrecht%20Leopold%20Hamburg"
  },
  {
    "name": "Dr. med. Genc Shala",
    "city": "Hamburg",
    "category": "doctors",
    "nameable": false,
    "entity_type": "person",
    "lat": 53.4651922,
    "lng": 9.9631522,
    "url": "https://www.google.com/maps/search/?api=1&query=Dr.%20med.%20Genc%20Shala%20Hamburg"
  },
  {
    "name": "Die Praxis für Kinder und Jugendliche",
    "city": "Hamburg",
    "category": "doctors",
    "nameable": true,
    "entity_type": "business",
    "lat": 53.5793012,
    "lng": 9.9334608,
    "url": "https://www.google.com/maps/search/?api=1&query=Die%20Praxis%20f%C3%BCr%20Kinder%20und%20Jugendliche%20Hamburg"
  },
  {
    "name": "Kinderarzt Kroschke und Klarczyk",
    "city": "Hamburg",
    "category": "doctors",
    "nameable": false,
    "entity_type": "person",
    "lat": 53.5663151,
    "lng": 10.0565086,
    "url": "https://www.google.com/maps/search/?api=1&query=Kinderarzt%20Kroschke%20und%20Klarczyk%20Hamburg"
  },
  {
    "name": "Hausärztliche Gemeinschaftspraxis Hummelsbütteler Markt",
    "city": "Hamburg",
    "category": "doctors",
    "nameable": true,
    "entity_type": "business",
    "lat": 53.6426129,
    "lng": 10.0463261,
    "url": "https://www.google.com/maps/search/?api=1&query=Haus%C3%A4rztliche%20Gemeinschaftspraxis%20Hummelsb%C3%BCtteler%20Markt%20Hamburg"
  },
  {
    "name": "Nazeh Mahmoud",
    "city": "Hamburg",
    "category": "doctors",
    "nameable": false,
    "entity_type": "person",
    "lat": 53.6433114,
    "lng": 10.0464417,
    "url": "https://www.google.com/maps/search/?api=1&query=Nazeh%20Mahmoud%20Hamburg"
  },
  {
    "name": "Praxis für HNO-Heilkunde",
    "city": "Hamburg",
    "category": "doctors",
    "nameable": true,
    "entity_type": "business",
    "lat": 53.6221296,
    "lng": 9.9541536,
    "url": "https://www.google.com/maps/search/?api=1&query=Praxis%20f%C3%BCr%20HNO-Heilkunde%20Hamburg"
  },
  {
    "name": "Geburtshaus Hamburg",
    "city": "Hamburg",
    "category": "doctors",
    "nameable": true,
    "entity_type": "business",
    "lat": 53.5485031,
    "lng": 9.9336469,
    "url": "https://www.google.com/maps/search/?api=1&query=Geburtshaus%20Hamburg%20Hamburg"
  },
  {
    "name": "Dr. Nina Augistin",
    "city": "Hamburg",
    "category": "doctors",
    "nameable": false,
    "entity_type": "person",
    "lat": 53.5535581,
    "lng": 10.06258,
    "url": "https://www.google.com/maps/search/?api=1&query=Dr.%20Nina%20Augistin%20Hamburg"
  },
  {
    "name": "Augenarzt Mahmoud Saadat",
    "city": "Hamburg",
    "category": "doctors",
    "nameable": false,
    "entity_type": "person",
    "lat": 53.5666761,
    "lng": 10.0568499,
    "url": "https://www.google.com/maps/search/?api=1&query=Augenarzt%20Mahmoud%20Saadat%20Hamburg"
  },
  {
    "name": "Orthopädie Am Alten Gaswerk - Gemeinschaftspraxis",
    "city": "Hamburg",
    "category": "doctors",
    "nameable": false,
    "entity_type": "person",
    "lat": 53.5637789,
    "lng": 9.916052,
    "url": "https://www.google.com/maps/search/?api=1&query=Orthop%C3%A4die%20Am%20Alten%20Gaswerk%20-%20Gemeinschaftspraxis%20Hamburg"
  },
  {
    "name": "Kinderchirurgie",
    "city": "Hamburg",
    "category": "doctors",
    "nameable": true,
    "entity_type": "business",
    "lat": 53.6359949,
    "lng": 10.0928513,
    "url": "https://www.google.com/maps/search/?api=1&query=Kinderchirurgie%20Hamburg"
  },
  {
    "name": "Dr. med Reimar Krüger",
    "city": "Hamburg",
    "category": "doctors",
    "nameable": false,
    "entity_type": "person",
    "lat": 53.6261097,
    "lng": 10.0857265,
    "url": "https://www.google.com/maps/search/?api=1&query=Dr.%20med%20Reimar%20Kr%C3%BCger%20Hamburg"
  },
  {
    "name": "Christoph Müller-Rahmel",
    "city": "Hamburg",
    "category": "doctors",
    "nameable": false,
    "entity_type": "person",
    "lat": 53.6523946,
    "lng": 10.1841989,
    "url": "https://www.google.com/maps/search/?api=1&query=Christoph%20M%C3%BCller-Rahmel%20Hamburg"
  },
  {
    "name": "Bewegung ist LEBEN (Orthopädische Praxis)",
    "city": "Hamburg",
    "category": "doctors",
    "nameable": false,
    "entity_type": "person",
    "lat": 53.5551657,
    "lng": 9.9267367,
    "url": "https://www.google.com/maps/search/?api=1&query=Bewegung%20ist%20LEBEN%20(Orthop%C3%A4dische%20Praxis)%20Hamburg"
  },
  {
    "name": "Hausarztpraxis Dr. Axt",
    "city": "Hamburg",
    "category": "doctors",
    "nameable": false,
    "entity_type": "person",
    "lat": 53.6746917,
    "lng": 10.0260552,
    "url": "https://www.google.com/maps/search/?api=1&query=Hausarztpraxis%20Dr.%20Axt%20Hamburg"
  },
  {
    "name": "Julia Berger Psychiater",
    "city": "Hamburg",
    "category": "doctors",
    "nameable": false,
    "entity_type": "person",
    "lat": 53.6532505,
    "lng": 10.0916517,
    "url": "https://www.google.com/maps/search/?api=1&query=Julia%20Berger%20Psychiater%20Hamburg"
  },
  {
    "name": "Neurologie Neuer Wall",
    "city": "Hamburg",
    "category": "doctors",
    "nameable": false,
    "entity_type": "person",
    "lat": 53.5521038,
    "lng": 9.9918582,
    "url": "https://www.google.com/maps/search/?api=1&query=Neurologie%20Neuer%20Wall%20Hamburg"
  },
  {
    "name": "Urologie Dr. Friedrichs",
    "city": "Hamburg",
    "category": "doctors",
    "nameable": false,
    "entity_type": "person",
    "lat": 53.5577472,
    "lng": 9.9896973,
    "url": "https://www.google.com/maps/search/?api=1&query=Urologie%20Dr.%20Friedrichs%20Hamburg"
  },
  {
    "name": "LIVION",
    "city": "Hamburg",
    "category": "doctors",
    "nameable": true,
    "entity_type": "business",
    "lat": 53.5583243,
    "lng": 10.0122493,
    "url": "https://www.google.com/maps/search/?api=1&query=LIVION%20Hamburg"
  },
  {
    "name": "HNO Praxis im Mercado",
    "city": "Hamburg",
    "category": "doctors",
    "nameable": true,
    "entity_type": "business",
    "lat": 53.5528852,
    "lng": 9.9314299,
    "url": "https://www.google.com/maps/search/?api=1&query=HNO%20Praxis%20im%20Mercado%20Hamburg"
  },
  {
    "name": "Hausarztpraxis Lokstedt",
    "city": "Hamburg",
    "category": "doctors",
    "nameable": false,
    "entity_type": "person",
    "lat": 53.5883878,
    "lng": 9.9530836,
    "url": "https://www.google.com/maps/search/?api=1&query=Hausarztpraxis%20Lokstedt%20Hamburg"
  },
  {
    "name": "Kinderarzt Dr. Petrick",
    "city": "Hamburg",
    "category": "doctors",
    "nameable": false,
    "entity_type": "person",
    "lat": 53.6077325,
    "lng": 10.1176474,
    "url": "https://www.google.com/maps/search/?api=1&query=Kinderarzt%20Dr.%20Petrick%20Hamburg"
  },
  {
    "name": "HNO Rennert & Reitmeier & Pyttlik & Thalau",
    "city": "Hamburg",
    "category": "doctors",
    "nameable": false,
    "entity_type": "person",
    "lat": 53.6523162,
    "lng": 10.0934155,
    "url": "https://www.google.com/maps/search/?api=1&query=HNO%20Rennert%20%26%20Reitmeier%20%26%20Pyttlik%20%26%20Thalau%20Hamburg"
  },
  {
    "name": "Hamburger BetreuungsKreis",
    "city": "Hamburg",
    "category": "doctors",
    "nameable": false,
    "entity_type": "person",
    "lat": 53.565849,
    "lng": 10.0419666,
    "url": "https://www.google.com/maps/search/?api=1&query=Hamburger%20BetreuungsKreis%20Hamburg"
  },
  {
    "name": "Hausarztpraxis Dr. med. Stefanie Fix & Torsten Fix",
    "city": "Hamburg",
    "category": "doctors",
    "nameable": false,
    "entity_type": "person",
    "lat": 53.5889299,
    "lng": 10.1801605,
    "url": "https://www.google.com/maps/search/?api=1&query=Hausarztpraxis%20Dr.%20med.%20Stefanie%20Fix%20%26%20Torsten%20Fix%20Hamburg"
  },
  {
    "name": "Internisten Winterhude",
    "city": "Hamburg",
    "category": "doctors",
    "nameable": false,
    "entity_type": "person",
    "lat": 53.5946927,
    "lng": 9.9984539,
    "url": "https://www.google.com/maps/search/?api=1&query=Internisten%20Winterhude%20Hamburg"
  },
  {
    "name": "Gemeinschaftspraxis für Nervenheilkunde",
    "city": "Hamburg",
    "category": "doctors",
    "nameable": true,
    "entity_type": "business",
    "lat": 53.574883,
    "lng": 10.073896,
    "url": "https://www.google.com/maps/search/?api=1&query=Gemeinschaftspraxis%20f%C3%BCr%20Nervenheilkunde%20Hamburg"
  },
  {
    "name": "Dr. Amirzada, Dr. Beier",
    "city": "Hamburg",
    "category": "doctors",
    "nameable": false,
    "entity_type": "person",
    "lat": 53.6410523,
    "lng": 9.947989,
    "url": "https://www.google.com/maps/search/?api=1&query=Dr.%20Amirzada%2C%20Dr.%20Beier%20Hamburg"
  },
  {
    "name": "Gemeinschaftspraxis Nordalbingerweg",
    "city": "Hamburg",
    "category": "doctors",
    "nameable": true,
    "entity_type": "business",
    "lat": 53.6405055,
    "lng": 9.9483767,
    "url": "https://www.google.com/maps/search/?api=1&query=Gemeinschaftspraxis%20Nordalbingerweg%20Hamburg"
  },
  {
    "name": "Dr. med. Sabine Rath und Kathrin Gross",
    "city": "Hamburg",
    "category": "doctors",
    "nameable": false,
    "entity_type": "person",
    "lat": 53.5829486,
    "lng": 9.8548776,
    "url": "https://www.google.com/maps/search/?api=1&query=Dr.%20med.%20Sabine%20Rath%20und%20Kathrin%20Gross%20Hamburg"
  },
  {
    "name": "Dr. Kay Steidtmann u. Dr. Andrea Paps",
    "city": "Hamburg",
    "category": "doctors",
    "nameable": false,
    "entity_type": "person",
    "lat": 53.5830123,
    "lng": 9.8548561,
    "url": "https://www.google.com/maps/search/?api=1&query=Dr.%20Kay%20Steidtmann%20u.%20Dr.%20Andrea%20Paps%20Hamburg"
  },
  {
    "name": "Dr. med. Frank Scharlau",
    "city": "Hamburg",
    "category": "doctors",
    "nameable": false,
    "entity_type": "person",
    "lat": 53.5829774,
    "lng": 9.8549741,
    "url": "https://www.google.com/maps/search/?api=1&query=Dr.%20med.%20Frank%20Scharlau%20Hamburg"
  },
  {
    "name": "Dr. R. Stühmer",
    "city": "Hamburg",
    "category": "doctors",
    "nameable": false,
    "entity_type": "person",
    "lat": 53.5829137,
    "lng": 9.8547649,
    "url": "https://www.google.com/maps/search/?api=1&query=Dr.%20R.%20St%C3%BChmer%20Hamburg"
  },
  {
    "name": "Dr. W-E Garbe",
    "city": "Hamburg",
    "category": "doctors",
    "nameable": false,
    "entity_type": "person",
    "lat": 53.5828883,
    "lng": 9.8548561,
    "url": "https://www.google.com/maps/search/?api=1&query=Dr.%20W-E%20Garbe%20Hamburg"
  },
  {
    "name": "Ärztezentrum Hamburg West",
    "city": "Hamburg",
    "category": "doctors",
    "nameable": true,
    "entity_type": "business",
    "lat": 53.5927974,
    "lng": 9.8730196,
    "url": "https://www.google.com/maps/search/?api=1&query=%C3%84rztezentrum%20Hamburg%20West%20Hamburg"
  },
  {
    "name": "Neurologische Praxis am Israelitischen Krankenhaus",
    "city": "Hamburg",
    "category": "doctors",
    "nameable": false,
    "entity_type": "person",
    "lat": 53.6058784,
    "lng": 9.9911486,
    "url": "https://www.google.com/maps/search/?api=1&query=Neurologische%20Praxis%20am%20Israelitischen%20Krankenhaus%20Hamburg"
  },
  {
    "name": "Sanna Rauhala-Parrey",
    "city": "Hamburg",
    "category": "doctors",
    "nameable": false,
    "entity_type": "person",
    "lat": 53.5601059,
    "lng": 9.9267097,
    "url": "https://www.google.com/maps/search/?api=1&query=Sanna%20Rauhala-Parrey%20Hamburg"
  },
  {
    "name": "Praxisgemeinschaft Rosenhagen",
    "city": "Hamburg",
    "category": "doctors",
    "nameable": false,
    "entity_type": "person",
    "lat": 53.5596389,
    "lng": 9.8892352,
    "url": "https://www.google.com/maps/search/?api=1&query=Praxisgemeinschaft%20Rosenhagen%20Hamburg"
  },
  {
    "name": "Haroske",
    "city": "Hamburg",
    "category": "doctors",
    "nameable": true,
    "entity_type": "business",
    "lat": 53.4717877,
    "lng": 9.8536165,
    "url": "https://www.google.com/maps/search/?api=1&query=Haroske%20Hamburg"
  },
  {
    "name": "Praxis für Orthopädie + Chiropraktik",
    "city": "Hamburg",
    "category": "doctors",
    "nameable": true,
    "entity_type": "business",
    "lat": 53.559807,
    "lng": 9.959728,
    "url": "https://www.google.com/maps/search/?api=1&query=Praxis%20f%C3%BCr%20Orthop%C3%A4die%20%2B%20Chiropraktik%20Hamburg"
  },
  {
    "name": "Dr. Oeter",
    "city": "Hamburg",
    "category": "doctors",
    "nameable": false,
    "entity_type": "person",
    "lat": 53.6187812,
    "lng": 10.0806355,
    "url": "https://www.google.com/maps/search/?api=1&query=Dr.%20Oeter%20Hamburg"
  },
  {
    "name": "Dr. Negin Pakravesh",
    "city": "Hamburg",
    "category": "doctors",
    "nameable": false,
    "entity_type": "person",
    "lat": 53.5421387,
    "lng": 9.9953631,
    "url": "https://www.google.com/maps/search/?api=1&query=Dr.%20Negin%20Pakravesh%20Hamburg"
  },
  {
    "name": "Hausarztpraxis Curslack",
    "city": "Hamburg",
    "category": "doctors",
    "nameable": false,
    "entity_type": "person",
    "lat": 53.4481868,
    "lng": 10.2307254,
    "url": "https://www.google.com/maps/search/?api=1&query=Hausarztpraxis%20Curslack%20Hamburg"
  },
  {
    "name": "Diabetes Centrum",
    "city": "Hamburg",
    "category": "doctors",
    "nameable": false,
    "entity_type": "person",
    "lat": 53.5592503,
    "lng": 10.1081363,
    "url": "https://www.google.com/maps/search/?api=1&query=Diabetes%20Centrum%20Hamburg"
  },
  {
    "name": "HNO Praxis Dr. Reinhardt",
    "city": "Hamburg",
    "category": "doctors",
    "nameable": false,
    "entity_type": "person",
    "lat": 53.6505377,
    "lng": 10.1622207,
    "url": "https://www.google.com/maps/search/?api=1&query=HNO%20Praxis%20Dr.%20Reinhardt%20Hamburg"
  },
  {
    "name": "Dr. med. Tatjana Tafese",
    "city": "Hamburg",
    "category": "doctors",
    "nameable": false,
    "entity_type": "person",
    "lat": 53.6505328,
    "lng": 10.1622474,
    "url": "https://www.google.com/maps/search/?api=1&query=Dr.%20med.%20Tatjana%20Tafese%20Hamburg"
  },
  {
    "name": "Grachtenhaus (Ärztehaus)",
    "city": "Hamburg",
    "category": "doctors",
    "nameable": false,
    "entity_type": "person",
    "lat": 53.4832997,
    "lng": 10.1751532,
    "url": "https://www.google.com/maps/search/?api=1&query=Grachtenhaus%20(%C3%84rztehaus)%20Hamburg"
  },
  {
    "name": "Medizinisches Versorgungszentrum H. Afzali, L. Punko, F. Sarwary",
    "city": "Hamburg",
    "category": "doctors",
    "nameable": false,
    "entity_type": "person",
    "lat": 53.4894115,
    "lng": 10.1810364,
    "url": "https://www.google.com/maps/search/?api=1&query=Medizinisches%20Versorgungszentrum%20H.%20Afzali%2C%20L.%20Punko%2C%20F.%20Sarwary%20Hamburg"
  },
  {
    "name": "Ärzte Am Kaiserkai",
    "city": "Hamburg",
    "category": "doctors",
    "nameable": true,
    "entity_type": "business",
    "lat": 53.541517,
    "lng": 9.9878187,
    "url": "https://www.google.com/maps/search/?api=1&query=%C3%84rzte%20Am%20Kaiserkai%20Hamburg"
  },
  {
    "name": "HNO-Praxis-Süderelbe",
    "city": "Hamburg",
    "category": "doctors",
    "nameable": true,
    "entity_type": "business",
    "lat": 53.4734778,
    "lng": 9.879717,
    "url": "https://www.google.com/maps/search/?api=1&query=HNO-Praxis-S%C3%BCderelbe%20Hamburg"
  },
  {
    "name": "Hans-Werner Wozny",
    "city": "Hamburg",
    "category": "doctors",
    "nameable": false,
    "entity_type": "person",
    "lat": 53.5344156,
    "lng": 10.0421237,
    "url": "https://www.google.com/maps/search/?api=1&query=Hans-Werner%20Wozny%20Hamburg"
  },
  {
    "name": "Praxis Fünfhausen",
    "city": "Hamburg",
    "category": "doctors",
    "nameable": true,
    "entity_type": "business",
    "lat": 53.4445692,
    "lng": 10.1313049,
    "url": "https://www.google.com/maps/search/?api=1&query=Praxis%20F%C3%BCnfhausen%20Hamburg"
  },
  {
    "name": "Dr. med. Ruth Hauck",
    "city": "Hamburg",
    "category": "doctors",
    "nameable": false,
    "entity_type": "person",
    "lat": 53.5581017,
    "lng": 9.9136913,
    "url": "https://www.google.com/maps/search/?api=1&query=Dr.%20med.%20Ruth%20Hauck%20Hamburg"
  },
  {
    "name": "Logopädische Praxis D. Schwiebert",
    "city": "Hamburg",
    "category": "doctors",
    "nameable": true,
    "entity_type": "business",
    "lat": 53.4865732,
    "lng": 10.2122988,
    "url": "https://www.google.com/maps/search/?api=1&query=Logop%C3%A4dische%20Praxis%20D.%20Schwiebert%20Hamburg"
  },
  {
    "name": "Naturheilpraxis Kudritzki",
    "city": "Hamburg",
    "category": "doctors",
    "nameable": false,
    "entity_type": "person",
    "lat": 53.5940587,
    "lng": 9.9877033,
    "url": "https://www.google.com/maps/search/?api=1&query=Naturheilpraxis%20Kudritzki%20Hamburg"
  },
  {
    "name": "Osteopathiezentrum Kuhlmann",
    "city": "Hamburg",
    "category": "doctors",
    "nameable": false,
    "entity_type": "person",
    "lat": 53.5924232,
    "lng": 9.9863558,
    "url": "https://www.google.com/maps/search/?api=1&query=Osteopathiezentrum%20Kuhlmann%20Hamburg"
  },
  {
    "name": "Fachärzte für HNO",
    "city": "Hamburg",
    "category": "doctors",
    "nameable": true,
    "entity_type": "business",
    "lat": 53.5772852,
    "lng": 9.9715366,
    "url": "https://www.google.com/maps/search/?api=1&query=Fach%C3%A4rzte%20f%C3%BCr%20HNO%20Hamburg"
  },
  {
    "name": "Dr. med. Constanze. v. Trotha, Dr. med Silke Runge, Dr. med. Jennifer Schüßler",
    "city": "Hamburg",
    "category": "doctors",
    "nameable": false,
    "entity_type": "person",
    "lat": 53.5828943,
    "lng": 9.9752814,
    "url": "https://www.google.com/maps/search/?api=1&query=Dr.%20med.%20Constanze.%20v.%20Trotha%2C%20Dr.%20med%20Silke%20Runge%2C%20Dr.%20med.%20Jennifer%20Sch%C3%BC%C3%9Fler%20Hamburg"
  },
  {
    "name": "Dermatologie",
    "city": "Hamburg",
    "category": "doctors",
    "nameable": true,
    "entity_type": "business",
    "lat": 53.5906571,
    "lng": 9.9723266,
    "url": "https://www.google.com/maps/search/?api=1&query=Dermatologie%20Hamburg"
  },
  {
    "name": "Universitäres Cancer Center Hamburg (UCCH)",
    "city": "Hamburg",
    "category": "doctors",
    "nameable": false,
    "entity_type": "person",
    "lat": 53.5912842,
    "lng": 9.9776175,
    "url": "https://www.google.com/maps/search/?api=1&query=Universit%C3%A4res%20Cancer%20Center%20Hamburg%20(UCCH)%20Hamburg"
  },
  {
    "name": "Hausarzt-Zentrum / Diabetes-Zentrum HH-Süd",
    "city": "Hamburg",
    "category": "doctors",
    "nameable": false,
    "entity_type": "person",
    "lat": 53.4691686,
    "lng": 9.8547218,
    "url": "https://www.google.com/maps/search/?api=1&query=Hausarzt-Zentrum%20%2F%20Diabetes-Zentrum%20HH-S%C3%BCd%20Hamburg"
  },
  {
    "name": "gerlach+lucassen",
    "city": "Hamburg",
    "category": "doctors",
    "nameable": true,
    "entity_type": "business",
    "lat": 53.5780545,
    "lng": 10.092158,
    "url": "https://www.google.com/maps/search/?api=1&query=gerlach%2Blucassen%20Hamburg"
  },
  {
    "name": "Praxisklinik Winterhude",
    "city": "Hamburg",
    "category": "doctors",
    "nameable": false,
    "entity_type": "person",
    "lat": 53.5815652,
    "lng": 10.0117726,
    "url": "https://www.google.com/maps/search/?api=1&query=Praxisklinik%20Winterhude%20Hamburg"
  },
  {
    "name": "Augenärzte im Hofweg",
    "city": "Hamburg",
    "category": "doctors",
    "nameable": true,
    "entity_type": "business",
    "lat": 53.5727631,
    "lng": 10.0149845,
    "url": "https://www.google.com/maps/search/?api=1&query=Augen%C3%A4rzte%20im%20Hofweg%20Hamburg"
  },
  {
    "name": "Hals-, Nasen- und Ohrenheilkunde",
    "city": "Hamburg",
    "category": "doctors",
    "nameable": false,
    "entity_type": "person",
    "lat": 53.5904974,
    "lng": 9.9758294,
    "url": "https://www.google.com/maps/search/?api=1&query=Hals-%2C%20Nasen-%20und%20Ohrenheilkunde%20Hamburg"
  },
  {
    "name": "Mund-, Kiefer- und Gesichtschirurgie (MKG)",
    "city": "Hamburg",
    "category": "doctors",
    "nameable": false,
    "entity_type": "person",
    "lat": 53.5904071,
    "lng": 9.9756196,
    "url": "https://www.google.com/maps/search/?api=1&query=Mund-%2C%20Kiefer-%20und%20Gesichtschirurgie%20(MKG)%20Hamburg"
  },
  {
    "name": "Hör-, Stimm- und Sprachheilkunde",
    "city": "Hamburg",
    "category": "doctors",
    "nameable": false,
    "entity_type": "person",
    "lat": 53.5905631,
    "lng": 9.9759777,
    "url": "https://www.google.com/maps/search/?api=1&query=H%C3%B6r-%2C%20Stimm-%20und%20Sprachheilkunde%20Hamburg"
  },
  {
    "name": "Blutentnahme",
    "city": "Hamburg",
    "category": "doctors",
    "nameable": true,
    "entity_type": "business",
    "lat": 53.5903435,
    "lng": 9.9748537,
    "url": "https://www.google.com/maps/search/?api=1&query=Blutentnahme%20Hamburg"
  },
  {
    "name": "Narkoseaufklärung",
    "city": "Hamburg",
    "category": "doctors",
    "nameable": true,
    "entity_type": "business",
    "lat": 53.5905514,
    "lng": 9.9748678,
    "url": "https://www.google.com/maps/search/?api=1&query=Narkoseaufkl%C3%A4rung%20Hamburg"
  },
  {
    "name": "Patientenaufnahme",
    "city": "Hamburg",
    "category": "doctors",
    "nameable": true,
    "entity_type": "business",
    "lat": 53.5903427,
    "lng": 9.9751172,
    "url": "https://www.google.com/maps/search/?api=1&query=Patientenaufnahme%20Hamburg"
  },
  {
    "name": "Prämedikationsambulanz",
    "city": "Hamburg",
    "category": "doctors",
    "nameable": true,
    "entity_type": "business",
    "lat": 53.5904608,
    "lng": 9.9749749,
    "url": "https://www.google.com/maps/search/?api=1&query=Pr%C3%A4medikationsambulanz%20Hamburg"
  },
  {
    "name": "AEP",
    "city": "Hamburg",
    "category": "doctors",
    "nameable": true,
    "entity_type": "business",
    "lat": 53.5905936,
    "lng": 9.9743811,
    "url": "https://www.google.com/maps/search/?api=1&query=AEP%20Hamburg"
  },
  {
    "name": "Adipositas-Zentrum",
    "city": "Hamburg",
    "category": "doctors",
    "nameable": true,
    "entity_type": "business",
    "lat": 53.5902388,
    "lng": 9.9745521,
    "url": "https://www.google.com/maps/search/?api=1&query=Adipositas-Zentrum%20Hamburg"
  },
  {
    "name": "EEG",
    "city": "Hamburg",
    "category": "doctors",
    "nameable": true,
    "entity_type": "business",
    "lat": 53.5905912,
    "lng": 9.9744975,
    "url": "https://www.google.com/maps/search/?api=1&query=EEG%20Hamburg"
  },
  {
    "name": "EMG",
    "city": "Hamburg",
    "category": "doctors",
    "nameable": true,
    "entity_type": "business",
    "lat": 53.5906107,
    "lng": 9.9744751,
    "url": "https://www.google.com/maps/search/?api=1&query=EMG%20Hamburg"
  },
  {
    "name": "Endokrinologie",
    "city": "Hamburg",
    "category": "doctors",
    "nameable": true,
    "entity_type": "business",
    "lat": 53.590178,
    "lng": 9.974623,
    "url": "https://www.google.com/maps/search/?api=1&query=Endokrinologie%20Hamburg"
  },
  {
    "name": "Funktionsdiagnostik",
    "city": "Hamburg",
    "category": "doctors",
    "nameable": true,
    "entity_type": "business",
    "lat": 53.5906162,
    "lng": 9.9743709,
    "url": "https://www.google.com/maps/search/?api=1&query=Funktionsdiagnostik%20Hamburg"
  },
  {
    "name": "Gynäkologie",
    "city": "Hamburg",
    "category": "doctors",
    "nameable": true,
    "entity_type": "business",
    "lat": 53.5901376,
    "lng": 9.9745315,
    "url": "https://www.google.com/maps/search/?api=1&query=Gyn%C3%A4kologie%20Hamburg"
  },
  {
    "name": "Hepatobiliäre Chirurgie",
    "city": "Hamburg",
    "category": "doctors",
    "nameable": false,
    "entity_type": "person",
    "lat": 53.5903081,
    "lng": 9.9743219,
    "url": "https://www.google.com/maps/search/?api=1&query=Hepatobili%C3%A4re%20Chirurgie%20Hamburg"
  },
  {
    "name": "Innere Medizin",
    "city": "Hamburg",
    "category": "doctors",
    "nameable": false,
    "entity_type": "person",
    "lat": 53.5903535,
    "lng": 9.9744124,
    "url": "https://www.google.com/maps/search/?api=1&query=Innere%20Medizin%20Hamburg"
  },
  {
    "name": "MEP",
    "city": "Hamburg",
    "category": "doctors",
    "nameable": true,
    "entity_type": "business",
    "lat": 53.5906302,
    "lng": 9.9744468,
    "url": "https://www.google.com/maps/search/?api=1&query=MEP%20Hamburg"
  },
  {
    "name": "NLG",
    "city": "Hamburg",
    "category": "doctors",
    "nameable": true,
    "entity_type": "business",
    "lat": 53.5906128,
    "lng": 9.9744171,
    "url": "https://www.google.com/maps/search/?api=1&query=NLG%20Hamburg"
  },
  {
    "name": "Neurologie",
    "city": "Hamburg",
    "category": "doctors",
    "nameable": true,
    "entity_type": "business",
    "lat": 53.5905548,
    "lng": 9.9744395,
    "url": "https://www.google.com/maps/search/?api=1&query=Neurologie%20Hamburg"
  },
  {
    "name": "Neurosonografie",
    "city": "Hamburg",
    "category": "doctors",
    "nameable": true,
    "entity_type": "business",
    "lat": 53.590572,
    "lng": 9.9744733,
    "url": "https://www.google.com/maps/search/?api=1&query=Neurosonografie%20Hamburg"
  },
  {
    "name": "Rheumatologie",
    "city": "Hamburg",
    "category": "doctors",
    "nameable": true,
    "entity_type": "business",
    "lat": 53.5901964,
    "lng": 9.9744609,
    "url": "https://www.google.com/maps/search/?api=1&query=Rheumatologie%20Hamburg"
  },
  {
    "name": "SEP",
    "city": "Hamburg",
    "category": "doctors",
    "nameable": true,
    "entity_type": "business",
    "lat": 53.5905902,
    "lng": 9.9744402,
    "url": "https://www.google.com/maps/search/?api=1&query=SEP%20Hamburg"
  },
  {
    "name": "Sozialdienst",
    "city": "Hamburg",
    "category": "doctors",
    "nameable": true,
    "entity_type": "chain",
    "lat": 53.5904037,
    "lng": 9.9747386,
    "url": "https://www.google.com/maps/search/?api=1&query=Sozialdienst%20Hamburg"
  },
  {
    "name": "VEP",
    "city": "Hamburg",
    "category": "doctors",
    "nameable": true,
    "entity_type": "business",
    "lat": 53.5905738,
    "lng": 9.9744077,
    "url": "https://www.google.com/maps/search/?api=1&query=VEP%20Hamburg"
  },
  {
    "name": "Chirurgie",
    "city": "Hamburg",
    "category": "doctors",
    "nameable": true,
    "entity_type": "business",
    "lat": 53.5910231,
    "lng": 9.973572,
    "url": "https://www.google.com/maps/search/?api=1&query=Chirurgie%20Hamburg"
  },
  {
    "name": "Lungenfunktionsambulanz",
    "city": "Hamburg",
    "category": "doctors",
    "nameable": true,
    "entity_type": "business",
    "lat": 53.5908807,
    "lng": 9.9744037,
    "url": "https://www.google.com/maps/search/?api=1&query=Lungenfunktionsambulanz%20Hamburg"
  },
  {
    "name": "Pneumologische Ambulanz",
    "city": "Hamburg",
    "category": "doctors",
    "nameable": false,
    "entity_type": "person",
    "lat": 53.5909535,
    "lng": 9.974318,
    "url": "https://www.google.com/maps/search/?api=1&query=Pneumologische%20Ambulanz%20Hamburg"
  },
  {
    "name": "Röntgen",
    "city": "Hamburg",
    "category": "doctors",
    "nameable": true,
    "entity_type": "business",
    "lat": 53.5909545,
    "lng": 9.9740131,
    "url": "https://www.google.com/maps/search/?api=1&query=R%C3%B6ntgen%20Hamburg"
  },
  {
    "name": "Sonografie",
    "city": "Hamburg",
    "category": "doctors",
    "nameable": true,
    "entity_type": "business",
    "lat": 53.5908253,
    "lng": 9.974169,
    "url": "https://www.google.com/maps/search/?api=1&query=Sonografie%20Hamburg"
  },
  {
    "name": "Urologie",
    "city": "Hamburg",
    "category": "doctors",
    "nameable": true,
    "entity_type": "business",
    "lat": 53.5910167,
    "lng": 9.9739308,
    "url": "https://www.google.com/maps/search/?api=1&query=Urologie%20Hamburg"
  },
  {
    "name": "Neurochirurgie",
    "city": "Hamburg",
    "category": "doctors",
    "nameable": true,
    "entity_type": "business",
    "lat": 53.5906433,
    "lng": 9.9740868,
    "url": "https://www.google.com/maps/search/?api=1&query=Neurochirurgie%20Hamburg"
  },
  {
    "name": "Schmerzambulanz",
    "city": "Hamburg",
    "category": "doctors",
    "nameable": true,
    "entity_type": "business",
    "lat": 53.5906571,
    "lng": 9.9739012,
    "url": "https://www.google.com/maps/search/?api=1&query=Schmerzambulanz%20Hamburg"
  },
  {
    "name": "Wirbelsäule",
    "city": "Hamburg",
    "category": "doctors",
    "nameable": true,
    "entity_type": "business",
    "lat": 53.5907034,
    "lng": 9.9740029,
    "url": "https://www.google.com/maps/search/?api=1&query=Wirbels%C3%A4ule%20Hamburg"
  },
  {
    "name": "Carepoint Othopädietechnik",
    "city": "Hamburg",
    "category": "doctors",
    "nameable": false,
    "entity_type": "person",
    "lat": 53.5898847,
    "lng": 9.9732139,
    "url": "https://www.google.com/maps/search/?api=1&query=Carepoint%20Othop%C3%A4dietechnik%20Hamburg"
  },
  {
    "name": "Clinical Trial Center",
    "city": "Hamburg",
    "category": "doctors",
    "nameable": false,
    "entity_type": "person",
    "lat": 53.5900525,
    "lng": 9.9731847,
    "url": "https://www.google.com/maps/search/?api=1&query=Clinical%20Trial%20Center%20Hamburg"
  },
  {
    "name": "Deutsche Stimmklinik",
    "city": "Hamburg",
    "category": "doctors",
    "nameable": false,
    "entity_type": "person",
    "lat": 53.5897135,
    "lng": 9.9732479,
    "url": "https://www.google.com/maps/search/?api=1&query=Deutsche%20Stimmklinik%20Hamburg"
  },
  {
    "name": "Hanseaticum",
    "city": "Hamburg",
    "category": "doctors",
    "nameable": true,
    "entity_type": "business",
    "lat": 53.5899908,
    "lng": 9.9732513,
    "url": "https://www.google.com/maps/search/?api=1&query=Hanseaticum%20Hamburg"
  },
  {
    "name": "Nord Service Projects",
    "city": "Hamburg",
    "category": "doctors",
    "nameable": true,
    "entity_type": "business",
    "lat": 53.5899492,
    "lng": 9.9731415,
    "url": "https://www.google.com/maps/search/?api=1&query=Nord%20Service%20Projects%20Hamburg"
  },
  {
    "name": "Preventive Care Center",
    "city": "Hamburg",
    "category": "doctors",
    "nameable": false,
    "entity_type": "person",
    "lat": 53.5896462,
    "lng": 9.9733296,
    "url": "https://www.google.com/maps/search/?api=1&query=Preventive%20Care%20Center%20Hamburg"
  },
  {
    "name": "RehaCentrum Hamburg",
    "city": "Hamburg",
    "category": "doctors",
    "nameable": true,
    "entity_type": "business",
    "lat": 53.5896865,
    "lng": 9.9734406,
    "url": "https://www.google.com/maps/search/?api=1&query=RehaCentrum%20Hamburg%20Hamburg"
  },
  {
    "name": "Schlaflabor im Spectrum",
    "city": "Hamburg",
    "category": "doctors",
    "nameable": true,
    "entity_type": "business",
    "lat": 53.5897537,
    "lng": 9.9733682,
    "url": "https://www.google.com/maps/search/?api=1&query=Schlaflabor%20im%20Spectrum%20Hamburg"
  },
  {
    "name": "Zentrum Sehstärke",
    "city": "Hamburg",
    "category": "doctors",
    "nameable": true,
    "entity_type": "business",
    "lat": 53.5899305,
    "lng": 9.9733238,
    "url": "https://www.google.com/maps/search/?api=1&query=Zentrum%20Sehst%C3%A4rke%20Hamburg"
  },
  {
    "name": "Zentrum für innovative Radiologie",
    "city": "Hamburg",
    "category": "doctors",
    "nameable": true,
    "entity_type": "business",
    "lat": 53.5898182,
    "lng": 9.9732981,
    "url": "https://www.google.com/maps/search/?api=1&query=Zentrum%20f%C3%BCr%20innovative%20Radiologie%20Hamburg"
  },
  {
    "name": "Elbdermatologie MVZ",
    "city": "Hamburg",
    "category": "doctors",
    "nameable": true,
    "entity_type": "business",
    "lat": 53.5610415,
    "lng": 9.9152337,
    "url": "https://www.google.com/maps/search/?api=1&query=Elbdermatologie%20MVZ%20Hamburg"
  },
  {
    "name": "Facharztteam Allgemeinmedizin Heimfeld",
    "city": "Hamburg",
    "category": "doctors",
    "nameable": false,
    "entity_type": "person",
    "lat": 53.4645146,
    "lng": 9.9646518,
    "url": "https://www.google.com/maps/search/?api=1&query=Facharztteam%20Allgemeinmedizin%20Heimfeld%20Hamburg"
  },
  {
    "name": "Bauck & Wechselberger",
    "city": "Hamburg",
    "category": "doctors",
    "nameable": false,
    "entity_type": "person",
    "lat": 53.5859223,
    "lng": 10.0528914,
    "url": "https://www.google.com/maps/search/?api=1&query=Bauck%20%26%20Wechselberger%20Hamburg"
  },
  {
    "name": "Enddarm Zentrum",
    "city": "Hamburg",
    "category": "doctors",
    "nameable": true,
    "entity_type": "business",
    "lat": 53.5770999,
    "lng": 9.9478589,
    "url": "https://www.google.com/maps/search/?api=1&query=Enddarm%20Zentrum%20Hamburg"
  },
  {
    "name": "Augenärzte Tornow",
    "city": "Hamburg",
    "category": "doctors",
    "nameable": false,
    "entity_type": "person",
    "lat": 53.5763671,
    "lng": 9.9511139,
    "url": "https://www.google.com/maps/search/?api=1&query=Augen%C3%A4rzte%20Tornow%20Hamburg"
  },
  {
    "name": "HNOsterstrasse",
    "city": "Hamburg",
    "category": "doctors",
    "nameable": true,
    "entity_type": "business",
    "lat": 53.5764741,
    "lng": 9.9502157,
    "url": "https://www.google.com/maps/search/?api=1&query=HNOsterstrasse%20Hamburg"
  },
  {
    "name": "Kinderarztpraxis Osterstraße",
    "city": "Hamburg",
    "category": "doctors",
    "nameable": false,
    "entity_type": "person",
    "lat": 53.5766537,
    "lng": 9.9493774,
    "url": "https://www.google.com/maps/search/?api=1&query=Kinderarztpraxis%20Osterstra%C3%9Fe%20Hamburg"
  },
  {
    "name": "Notfallpraxis Altona",
    "city": "Hamburg",
    "category": "doctors",
    "nameable": false,
    "entity_type": "person",
    "lat": 53.559811,
    "lng": 9.9600093,
    "url": "https://www.google.com/maps/search/?api=1&query=Notfallpraxis%20Altona%20Hamburg"
  },
  {
    "name": "Dr. Kiran Paulsen / Dr. Joachim Harnack",
    "city": "Hamburg",
    "category": "doctors",
    "nameable": false,
    "entity_type": "person",
    "lat": 53.5810027,
    "lng": 9.9737539,
    "url": "https://www.google.com/maps/search/?api=1&query=Dr.%20Kiran%20Paulsen%20%2F%20Dr.%20Joachim%20Harnack%20Hamburg"
  },
  {
    "name": "Dr. med. Lukas Schmitt",
    "city": "Hamburg",
    "category": "doctors",
    "nameable": false,
    "entity_type": "person",
    "lat": 53.5768954,
    "lng": 9.9515818,
    "url": "https://www.google.com/maps/search/?api=1&query=Dr.%20med.%20Lukas%20Schmitt%20Hamburg"
  },
  {
    "name": "Dr. med. Petra Klaus",
    "city": "Hamburg",
    "category": "doctors",
    "nameable": false,
    "entity_type": "person",
    "lat": 53.576871,
    "lng": 9.9514851,
    "url": "https://www.google.com/maps/search/?api=1&query=Dr.%20med.%20Petra%20Klaus%20Hamburg"
  },
  {
    "name": "Fachärzte für Urologie und Andrologie",
    "city": "Hamburg",
    "category": "doctors",
    "nameable": true,
    "entity_type": "business",
    "lat": 53.5769066,
    "lng": 9.9516429,
    "url": "https://www.google.com/maps/search/?api=1&query=Fach%C3%A4rzte%20f%C3%BCr%20Urologie%20und%20Andrologie%20Hamburg"
  },
  {
    "name": "Frauenarztpraxis Heussweg",
    "city": "Hamburg",
    "category": "doctors",
    "nameable": false,
    "entity_type": "person",
    "lat": 53.5768299,
    "lng": 9.9515582,
    "url": "https://www.google.com/maps/search/?api=1&query=Frauenarztpraxis%20Heussweg%20Hamburg"
  },
  {
    "name": "Hausärzte",
    "city": "Hamburg",
    "category": "doctors",
    "nameable": true,
    "entity_type": "business",
    "lat": 53.5768568,
    "lng": 9.9516462,
    "url": "https://www.google.com/maps/search/?api=1&query=Haus%C3%A4rzte%20Hamburg"
  },
  {
    "name": "Hausärztliche Praxisgemeinschaft Heussweg",
    "city": "Hamburg",
    "category": "doctors",
    "nameable": false,
    "entity_type": "person",
    "lat": 53.5767482,
    "lng": 9.9515317,
    "url": "https://www.google.com/maps/search/?api=1&query=Haus%C3%A4rztliche%20Praxisgemeinschaft%20Heussweg%20Hamburg"
  },
  {
    "name": "Lungenarzt",
    "city": "Hamburg",
    "category": "doctors",
    "nameable": true,
    "entity_type": "business",
    "lat": 53.5767918,
    "lng": 9.9516217,
    "url": "https://www.google.com/maps/search/?api=1&query=Lungenarzt%20Hamburg"
  },
  {
    "name": "Ärzte für Frauenheilkunde und Geburtshilfe",
    "city": "Hamburg",
    "category": "doctors",
    "nameable": true,
    "entity_type": "business",
    "lat": 53.5769354,
    "lng": 9.9515058,
    "url": "https://www.google.com/maps/search/?api=1&query=%C3%84rzte%20f%C3%BCr%20Frauenheilkunde%20und%20Geburtshilfe%20Hamburg"
  },
  {
    "name": "Chirurgische Gemeinschaftspraxis Osterstraße",
    "city": "Hamburg",
    "category": "doctors",
    "nameable": true,
    "entity_type": "business",
    "lat": 53.5764775,
    "lng": 9.9524509,
    "url": "https://www.google.com/maps/search/?api=1&query=Chirurgische%20Gemeinschaftspraxis%20Osterstra%C3%9Fe%20Hamburg"
  },
  {
    "name": "MKG-Eimsbüttel",
    "city": "Hamburg",
    "category": "doctors",
    "nameable": true,
    "entity_type": "business",
    "lat": 53.5770672,
    "lng": 9.9514445,
    "url": "https://www.google.com/maps/search/?api=1&query=MKG-Eimsb%C3%BCttel%20Hamburg"
  },
  {
    "name": "bauchforum",
    "city": "Hamburg",
    "category": "doctors",
    "nameable": true,
    "entity_type": "business",
    "lat": 53.5765006,
    "lng": 9.952581,
    "url": "https://www.google.com/maps/search/?api=1&query=bauchforum%20Hamburg"
  },
  {
    "name": "Dr. med. Bianca Falkenberg",
    "city": "Hamburg",
    "category": "doctors",
    "nameable": false,
    "entity_type": "person",
    "lat": 53.5769254,
    "lng": 9.9490412,
    "url": "https://www.google.com/maps/search/?api=1&query=Dr.%20med.%20Bianca%20Falkenberg%20Hamburg"
  },
  {
    "name": "Dr. Abdülkadir Güler, prakt. Arzt",
    "city": "Hamburg",
    "category": "doctors",
    "nameable": false,
    "entity_type": "person",
    "lat": 53.5144171,
    "lng": 9.9876681,
    "url": "https://www.google.com/maps/search/?api=1&query=Dr.%20Abd%C3%BClkadir%20G%C3%BCler%2C%20prakt.%20Arzt%20Hamburg"
  },
  {
    "name": "Alimaus Nobis Bene",
    "city": "Hamburg",
    "category": "doctors",
    "nameable": false,
    "entity_type": "person",
    "lat": 53.5504973,
    "lng": 9.9539703,
    "url": "https://www.google.com/maps/search/?api=1&query=Alimaus%20Nobis%20Bene%20Hamburg"
  },
  {
    "name": "Augen-Tagesklinik",
    "city": "Hamburg",
    "category": "doctors",
    "nameable": true,
    "entity_type": "business",
    "lat": 53.5732024,
    "lng": 9.9882036,
    "url": "https://www.google.com/maps/search/?api=1&query=Augen-Tagesklinik%20Hamburg"
  },
  {
    "name": "Knie-Hand-Fuss-Praxis",
    "city": "Hamburg",
    "category": "doctors",
    "nameable": true,
    "entity_type": "business",
    "lat": 53.580674,
    "lng": 9.999817,
    "url": "https://www.google.com/maps/search/?api=1&query=Knie-Hand-Fuss-Praxis%20Hamburg"
  },
  {
    "name": "Neuroradiologie",
    "city": "Hamburg",
    "category": "doctors",
    "nameable": true,
    "entity_type": "business",
    "lat": 53.5911169,
    "lng": 9.9757565,
    "url": "https://www.google.com/maps/search/?api=1&query=Neuroradiologie%20Hamburg"
  },